{
    "kozani": {
        "name": "Kozáni",
        "lat": 40.30069,
        "lon": 21.78896
    },
    "komotini": {
        "name": "Komotiní",
        "lat": 41.11917,
        "lon": 25.40535
    },
    "maurepas": {
        "name": "Maurepas",
        "lat": 48.76486,
        "lon": 1.92923
    },
    "manosque": {
        "name": "Manosque",
        "lat": 43.82883,
        "lon": 5.78688
    },
    "les mureaux": {
        "name": "Les Mureaux",
        "lat": 48.99173,
        "lon": 1.90972
    },
    "kilkis": {
        "name": "Kilkís",
        "lat": 40.99302,
        "lon": 22.87433
    },
    "le creusot": {
        "name": "Le Creusot",
        "lat": 46.80714,
        "lon": 4.41632
    },
    "evry": {
        "name": "Évry",
        "lat": 48.63333,
        "lon": 2.45
    },
    "evreux": {
        "name": "Évreux",
        "lat": 49.02414,
        "lon": 1.15082
    },
    "dieppe": {
        "name": "Dieppe",
        "lat": 46.07844,
        "lon": -64.68735
    },
    "creteil": {
        "name": "Créteil",
        "lat": 48.78333,
        "lon": 2.46667
    },
    "caen": {
        "name": "Caen",
        "lat": 49.18585,
        "lon": -0.35912
    },
    "cachan": {
        "name": "Cachan",
        "lat": 48.79632,
        "lon": 2.33661
    },
    "brest": {
        "name": "Brest",
        "lat": 52.09755,
        "lon": 23.68775
    },
    "bressuire": {
        "name": "Bressuire",
        "lat": 46.85,
        "lon": -0.48333
    },
    "avon": {
        "name": "Avon",
        "lat": 41.45171,
        "lon": -82.03542
    },
    "avion": {
        "name": "Avion",
        "lat": 50.41038,
        "lon": 2.83053
    },
    "amiens": {
        "name": "Amiens",
        "lat": 49.9,
        "lon": 2.3
    },
    "teo": {
        "name": "Teo",
        "lat": 42.75,
        "lon": -8.5
    },
    "zubia": {
        "name": "Zubia",
        "lat": 37.11906,
        "lon": -3.584
    },
    "zafra": {
        "name": "Zafra",
        "lat": 38.41667,
        "lon": -6.41667
    },
    "yecla": {
        "name": "Yecla",
        "lat": 38.61365,
        "lon": -1.11468
    },
    "villena": {
        "name": "Villena",
        "lat": 38.6373,
        "lon": -0.86568
    },
    "villarrobledo": {
        "name": "Villarrobledo",
        "lat": 39.26992,
        "lon": -2.60119
    },
    "vila-real": {
        "name": "Vila-real",
        "lat": 39.9383,
        "lon": -0.10087
    },
    "villanueva de la serena": {
        "name": "Villanueva de la Serena",
        "lat": 38.97655,
        "lon": -5.7974
    },
    "villajoyosa": {
        "name": "Villajoyosa",
        "lat": 38.50754,
        "lon": -0.23346
    },
    "vicar": {
        "name": "Vícar",
        "lat": 36.83155,
        "lon": -2.64273
    },
    "velez-malaga": {
        "name": "Vélez-Málaga",
        "lat": 36.78107,
        "lon": -4.10266
    },
    "valencia": {
        "name": "Valencia",
        "lat": 10.16202,
        "lon": -68.00765
    },
    "valdepenas": {
        "name": "Valdepeñas",
        "lat": 38.76211,
        "lon": -3.38483
    },
    "utrera": {
        "name": "Utrera",
        "lat": 37.18516,
        "lon": -5.78093
    },
    "ubrique": {
        "name": "Ubrique",
        "lat": 36.67777,
        "lon": -5.446
    },
    "ubeda": {
        "name": "Úbeda",
        "lat": 38.01328,
        "lon": -3.3705
    },
    "totana": {
        "name": "Totana",
        "lat": 37.7688,
        "lon": -1.50229
    },
    "torrox": {
        "name": "Torrox",
        "lat": 36.75793,
        "lon": -3.95233
    },
    "torrevieja": {
        "name": "Torrevieja",
        "lat": 37.97872,
        "lon": -0.68222
    },
    "torre-pacheco": {
        "name": "Torre-Pacheco",
        "lat": 37.74293,
        "lon": -0.95396
    },
    "torrent": {
        "name": "Torrent",
        "lat": 39.43705,
        "lon": -0.46546
    },
    "torremolinos": {
        "name": "Torremolinos",
        "lat": 36.62035,
        "lon": -4.49976
    },
    "rangpur": {
        "name": "Rangpur",
        "lat": 25.74664,
        "lon": 89.25166
    },
    "sherpur": {
        "name": "Sherpur",
        "lat": 25.01881,
        "lon": 90.01751
    },
    "meylan": {
        "name": "Meylan",
        "lat": 45.21988,
        "lon": 5.79007
    },
    "mauguio": {
        "name": "Mauguio",
        "lat": 43.6181,
        "lon": 4.00739
    },
    "kavala": {
        "name": "Kavála",
        "lat": 40.93959,
        "lon": 24.40687
    },
    "maubeuge": {
        "name": "Maubeuge",
        "lat": 50.27875,
        "lon": 3.97267
    },
    "massy": {
        "name": "Massy",
        "lat": 48.72692,
        "lon": 2.28301
    },
    "wasquehal": {
        "name": "Wasquehal",
        "lat": 50.67043,
        "lon": 3.13382
    },
    "vendome": {
        "name": "Vendôme",
        "lat": 47.8,
        "lon": 1.06667
    },
    "limoges": {
        "name": "Limoges",
        "lat": 45.83153,
        "lon": 1.25781
    },
    "trappes": {
        "name": "Trappes",
        "lat": 48.77413,
        "lon": 2.01781
    },
    "la ciotat": {
        "name": "La Ciotat",
        "lat": 43.17476,
        "lon": 5.60449
    },
    "hyeres": {
        "name": "Hyères",
        "lat": 43.11954,
        "lon": 6.13897
    },
    "les escaldes": {
        "name": "les Escaldes",
        "lat": 42.50729,
        "lon": 1.53414
    },
    "andorra la vella": {
        "name": "Andorra la Vella",
        "lat": 42.50779,
        "lon": 1.52109
    },
    "umm al qaywayn": {
        "name": "Umm al Qaywayn",
        "lat": 25.56473,
        "lon": 55.55517
    },
    "ras al-khaimah": {
        "name": "Ras al-Khaimah",
        "lat": 25.78953,
        "lon": 55.9432
    },
    "khawr fakkan": {
        "name": "Khawr Fakkān",
        "lat": 25.33132,
        "lon": 56.34199
    },
    "dubai": {
        "name": "Dubai",
        "lat": 25.0657,
        "lon": 55.17128
    },
    "dibba al-fujairah": {
        "name": "Dibba Al-Fujairah",
        "lat": 25.59246,
        "lon": 56.26176
    },
    "sharjah": {
        "name": "Sharjah",
        "lat": 25.33737,
        "lon": 55.41206
    },
    "ar ruways": {
        "name": "Ar Ruways",
        "lat": 24.11028,
        "lon": 52.73056
    },
    "al fujayrah": {
        "name": "Al Fujayrah",
        "lat": 25.11641,
        "lon": 56.34141
    },
    "al ain": {
        "name": "Al Ain",
        "lat": 24.19167,
        "lon": 55.76056
    },
    "ajman": {
        "name": "Ajman",
        "lat": 25.41111,
        "lon": 55.43504
    },
    "adh dhayd": {
        "name": "Adh Dhayd",
        "lat": 25.28812,
        "lon": 55.88157
    },
    "abu dhabi": {
        "name": "Abu Dhabi",
        "lat": 24.46667,
        "lon": 54.36667
    },
    "zaranj": {
        "name": "Zaranj",
        "lat": 30.95962,
        "lon": 61.86037
    },
    "taloqan": {
        "name": "Taloqan",
        "lat": 36.73605,
        "lon": 69.53451
    },
    "shindand": {
        "name": "Shīnḏanḏ",
        "lat": 33.30294,
        "lon": 62.1474
    },
    "shibirghan": {
        "name": "Shibirghān",
        "lat": 36.66757,
        "lon": 65.7529
    },
    "shahrak": {
        "name": "Shahrak",
        "lat": 34.10737,
        "lon": 64.3052
    },
    "sar-e pul": {
        "name": "Sar-e Pul",
        "lat": 36.21544,
        "lon": 65.93249
    },
    "sang-e charak": {
        "name": "Sang-e Chārak",
        "lat": 35.84972,
        "lon": 66.43694
    },
    "aibak": {
        "name": "Aībak",
        "lat": 36.26468,
        "lon": 68.01551
    },
    "rustaq": {
        "name": "Rustaq",
        "lat": 23.39083,
        "lon": 57.42444
    },
    "qarqin": {
        "name": "Qarqīn",
        "lat": 37.41853,
        "lon": 66.04358
    },
    "qarawul": {
        "name": "Qarāwul",
        "lat": 37.21959,
        "lon": 68.7802
    },
    "pul-e khumri": {
        "name": "Pul-e Khumrī",
        "lat": 35.94458,
        "lon": 68.71512
    },
    "paghman": {
        "name": "Paghmān",
        "lat": 34.58787,
        "lon": 68.95091
    },
    "nahrin": {
        "name": "Nahrīn",
        "lat": 36.0649,
        "lon": 69.13343
    },
    "maymana": {
        "name": "Maymana",
        "lat": 35.92139,
        "lon": 64.78361
    },
    "mehtar lam": {
        "name": "Mehtar Lām",
        "lat": 34.67139,
        "lon": 70.20944
    },
    "mazar-e sharif": {
        "name": "Mazār-e Sharīf",
        "lat": 36.70904,
        "lon": 67.11087
    },
    "lashkar gah": {
        "name": "Lashkar Gāh",
        "lat": 31.59382,
        "lon": 64.37161
    },
    "kushk": {
        "name": "Kushk",
        "lat": 33.29565,
        "lon": 61.95221
    },
    "kunduz": {
        "name": "Kunduz",
        "lat": 36.72895,
        "lon": 68.857
    },
    "khost": {
        "name": "Khōst",
        "lat": 33.33951,
        "lon": 69.92041
    },
    "khulm": {
        "name": "Khulm",
        "lat": 36.69736,
        "lon": 67.69826
    },
    "khash": {
        "name": "Khāsh",
        "lat": 28.22107,
        "lon": 61.21582
    },
    "khanabad": {
        "name": "Khanabad",
        "lat": 36.6825,
        "lon": 69.11556
    },
    "karukh": {
        "name": "Karukh",
        "lat": 34.48108,
        "lon": 62.5863
    },
    "kandahar": {
        "name": "Kandahār",
        "lat": 31.61332,
        "lon": 65.71013
    },
    "kabul": {
        "name": "Kabul",
        "lat": 34.52813,
        "lon": 69.17233
    },
    "jalalabad": {
        "name": "Jalālābād",
        "lat": 27.72625,
        "lon": 79.65523
    },
    "jabal os saraj": {
        "name": "Jabal os Saraj",
        "lat": 35.11833,
        "lon": 69.23778
    },
    "herat": {
        "name": "Herāt",
        "lat": 34.34817,
        "lon": 62.19967
    },
    "ghormach": {
        "name": "Ghormach",
        "lat": 35.73062,
        "lon": 63.78264
    },
    "ghazni": {
        "name": "Ghazni",
        "lat": 33.55391,
        "lon": 68.42096
    },
    "gereshk": {
        "name": "Gereshk",
        "lat": 31.82089,
        "lon": 64.57005
    },
    "gardez": {
        "name": "Gardez",
        "lat": 33.59744,
        "lon": 69.22592
    },
    "fayzabad": {
        "name": "Fayzabad",
        "lat": 37.11664,
        "lon": 70.58002
    },
    "farah": {
        "name": "Farah",
        "lat": 32.37451,
        "lon": 62.11638
    },
    "kafir qala": {
        "name": "Kafir Qala",
        "lat": 34.66667,
        "lon": 61.06667
    },
    "charikar": {
        "name": "Charikar",
        "lat": 35.01361,
        "lon": 69.17139
    },
    "baraki barak": {
        "name": "Baraki Barak",
        "lat": 33.96744,
        "lon": 68.9492
    },
    "bamyan": {
        "name": "Bāmyān",
        "lat": 34.82156,
        "lon": 67.82734
    },
    "balkh": {
        "name": "Balkh",
        "lat": 36.75635,
        "lon": 66.8972
    },
    "baghlan": {
        "name": "Baghlān",
        "lat": 36.13068,
        "lon": 68.70829
    },
    "art khwajah": {
        "name": "Ārt Khwājah",
        "lat": 37.08571,
        "lon": 69.47958
    },
    "asmar": {
        "name": "Āsmār",
        "lat": 35.03333,
        "lon": 71.35809
    },
    "asadabad": {
        "name": "Asadābād",
        "lat": 34.78241,
        "lon": 48.12012
    },
    "andkhoy": {
        "name": "Andkhōy",
        "lat": 36.95293,
        "lon": 65.12376
    },
    "bazarak": {
        "name": "Bāzārak",
        "lat": 35.31292,
        "lon": 69.51519
    },
    "markaz-e woluswali-ye achin": {
        "name": "Markaz-e Woluswalī-ye Āchīn",
        "lat": 34.12583,
        "lon": 70.70778
    },
    "saint johns": {
        "name": "Saint John’s",
        "lat": 17.11717,
        "lon": -61.84573
    },
    "the valley": {
        "name": "The Valley",
        "lat": 18.21704,
        "lon": -63.05783
    },
    "sarande": {
        "name": "Sarandë",
        "lat": 39.87556,
        "lon": 20.00528
    },
    "kukes": {
        "name": "Kukës",
        "lat": 42.07694,
        "lon": 20.42194
    },
    "korce": {
        "name": "Korçë",
        "lat": 40.61861,
        "lon": 20.78083
    },
    "gjirokaster": {
        "name": "Gjirokastër",
        "lat": 40.07583,
        "lon": 20.13889
    },
    "elbasan": {
        "name": "Elbasan",
        "lat": 41.1125,
        "lon": 20.08222
    },
    "burrel": {
        "name": "Burrel",
        "lat": 41.61028,
        "lon": 20.00889
    },
    "vlore": {
        "name": "Vlorë",
        "lat": 40.46667,
        "lon": 19.48972
    },
    "tirana": {
        "name": "Tirana",
        "lat": 41.3275,
        "lon": 19.81889
    },
    "shkoder": {
        "name": "Shkodër",
        "lat": 42.06828,
        "lon": 19.51258
    },
    "patos fshat": {
        "name": "Patos Fshat",
        "lat": 40.64278,
        "lon": 19.65083
    },
    "lushnje": {
        "name": "Lushnjë",
        "lat": 40.94194,
        "lon": 19.705
    },
    "lezhe": {
        "name": "Lezhë",
        "lat": 41.78361,
        "lon": 19.64361
    },
    "lac": {
        "name": "Laç",
        "lat": 41.63556,
        "lon": 19.71306
    },
    "kucove": {
        "name": "Kuçovë",
        "lat": 40.80028,
        "lon": 19.91667
    },
    "kruje": {
        "name": "Krujë",
        "lat": 41.50917,
        "lon": 19.79278
    },
    "kavaje": {
        "name": "Kavajë",
        "lat": 41.18556,
        "lon": 19.55694
    },
    "fier-cifci": {
        "name": "Fier-Çifçi",
        "lat": 40.71667,
        "lon": 19.56667
    },
    "fier": {
        "name": "Fier",
        "lat": 40.72389,
        "lon": 19.55611
    },
    "durres": {
        "name": "Durrës",
        "lat": 41.32306,
        "lon": 19.44139
    },
    "berat": {
        "name": "Berat",
        "lat": 40.70583,
        "lon": 19.95222
    },
    "kapan": {
        "name": "Kapan",
        "lat": 39.20755,
        "lon": 46.40576
    },
    "goris": {
        "name": "Goris",
        "lat": 39.51111,
        "lon": 46.34168
    },
    "hatsavan": {
        "name": "Hats’avan",
        "lat": 39.46405,
        "lon": 45.97047
    },
    "artashat": {
        "name": "Artashat",
        "lat": 39.96144,
        "lon": 44.54447
    },
    "ararat": {
        "name": "Ararat",
        "lat": 39.83069,
        "lon": 44.70569
    },
    "yerevan": {
        "name": "Yerevan",
        "lat": 40.18111,
        "lon": 44.51361
    },
    "ejmiatsin": {
        "name": "Ejmiatsin",
        "lat": 40.16557,
        "lon": 44.29462
    },
    "stepanavan": {
        "name": "Step’anavan",
        "lat": 41.00995,
        "lon": 44.38531
    },
    "spitak": {
        "name": "Spitak",
        "lat": 40.83221,
        "lon": 44.26731
    },
    "sevan": {
        "name": "Sevan",
        "lat": 40.5473,
        "lon": 44.94171
    },
    "masis": {
        "name": "Masis",
        "lat": 40.06542,
        "lon": 44.41618
    },
    "vanadzor": {
        "name": "Vanadzor",
        "lat": 40.80456,
        "lon": 44.4939
    },
    "gavarr": {
        "name": "Gavarr",
        "lat": 40.35398,
        "lon": 45.12386
    },
    "hrazdan": {
        "name": "Hrazdan",
        "lat": 40.49748,
        "lon": 44.7662
    },
    "armavir": {
        "name": "Armavir",
        "lat": 44.9892,
        "lon": 41.1234
    },
    "gyumri": {
        "name": "Gyumri",
        "lat": 40.7942,
        "lon": 43.84528
    },
    "ashtarak": {
        "name": "Ashtarak",
        "lat": 40.2991,
        "lon": 44.36204
    },
    "abovyan": {
        "name": "Abovyan",
        "lat": 40.27368,
        "lon": 44.63348
    },
    "saurimo": {
        "name": "Saurimo",
        "lat": -9.66078,
        "lon": 20.39155
    },
    "lucapa": {
        "name": "Lucapa",
        "lat": -8.41915,
        "lon": 20.74466
    },
    "luau": {
        "name": "Luau",
        "lat": -10.70727,
        "lon": 22.22466
    },
    "uige": {
        "name": "Uíge",
        "lat": -7.60874,
        "lon": 15.06131
    },
    "soio": {
        "name": "Soio",
        "lat": -6.1349,
        "lon": 12.36894
    },
    "nzeto": {
        "name": "Nzeto",
        "lat": -7.23116,
        "lon": 12.8666
    },
    "ndalatando": {
        "name": "N’dalatando",
        "lat": -9.29782,
        "lon": 14.91162
    },
    "mbanza congo": {
        "name": "Mbanza Congo",
        "lat": -6.26703,
        "lon": 14.2401
    },
    "malanje": {
        "name": "Malanje",
        "lat": -9.54015,
        "lon": 16.34096
    },
    "luanda": {
        "name": "Luanda",
        "lat": -8.83682,
        "lon": 13.23432
    },
    "caxito": {
        "name": "Caxito",
        "lat": -8.57848,
        "lon": 13.66425
    },
    "cabinda": {
        "name": "Cabinda",
        "lat": -5.55,
        "lon": 12.2
    },
    "sumbe": {
        "name": "Sumbe",
        "lat": -11.20605,
        "lon": 13.84371
    },
    "namibe": {
        "name": "Namibe",
        "lat": -15.19611,
        "lon": 12.15222
    },
    "menongue": {
        "name": "Menongue",
        "lat": -14.6585,
        "lon": 17.69099
    },
    "luena": {
        "name": "Luena",
        "lat": -11.78333,
        "lon": 19.91667
    },
    "lubango": {
        "name": "Lubango",
        "lat": -14.91717,
        "lon": 13.4925
    },
    "longonjo": {
        "name": "Longonjo",
        "lat": -12.90667,
        "lon": 15.25333
    },
    "lobito": {
        "name": "Lobito",
        "lat": -12.3644,
        "lon": 13.53601
    },
    "cuito": {
        "name": "Cuito",
        "lat": -12.38333,
        "lon": 16.93333
    },
    "huambo": {
        "name": "Huambo",
        "lat": -12.77611,
        "lon": 15.73917
    },
    "catumbela": {
        "name": "Catumbela",
        "lat": -12.43002,
        "lon": 13.54677
    },
    "catabola": {
        "name": "Catabola",
        "lat": -12.15,
        "lon": 17.28333
    },
    "camacupa": {
        "name": "Camacupa",
        "lat": -12.01667,
        "lon": 17.48333
    },
    "caluquembe": {
        "name": "Caluquembe",
        "lat": -13.78333,
        "lon": 14.68333
    },
    "caala": {
        "name": "Caála",
        "lat": -12.8525,
        "lon": 15.56056
    },
    "benguela": {
        "name": "Benguela",
        "lat": -12.57626,
        "lon": 13.40547
    },
    "zarate": {
        "name": "Zárate",
        "lat": -34.09814,
        "lon": -59.02858
    },
    "villa ocampo": {
        "name": "Villa Ocampo",
        "lat": -28.48752,
        "lon": -59.35515
    },
    "villa lugano": {
        "name": "Villa Lugano",
        "lat": -34.67907,
        "lon": -58.47263
    },
    "villaguay": {
        "name": "Villaguay",
        "lat": -31.8653,
        "lon": -59.02689
    },
    "villa gesell": {
        "name": "Villa Gesell",
        "lat": -37.26394,
        "lon": -56.97304
    },
    "tigre": {
        "name": "Tigre",
        "lat": -34.42603,
        "lon": -58.57962
    },
    "tandil": {
        "name": "Tandil",
        "lat": -37.32167,
        "lon": -59.13316
    },
    "san vicente": {
        "name": "San Vicente",
        "lat": 13.63333,
        "lon": -88.8
    },
    "santo tome": {
        "name": "Santo Tomé",
        "lat": -31.66274,
        "lon": -60.7653
    },
    "santa elena": {
        "name": "Santa Elena",
        "lat": -2.22622,
        "lon": -80.85873
    },
    "san pedro": {
        "name": "San Pedro",
        "lat": 33.73585,
        "lon": -118.29229
    },
    "san luis del palmar": {
        "name": "San Luis del Palmar",
        "lat": -27.5079,
        "lon": -58.55454
    },
    "san lorenzo": {
        "name": "San Lorenzo",
        "lat": 37.68104,
        "lon": -122.12441
    },
    "san javier": {
        "name": "San Javier",
        "lat": 37.80626,
        "lon": -0.83736
    },
    "san isidro": {
        "name": "San Isidro",
        "lat": -12.11667,
        "lon": -77.05
    },
    "saladas": {
        "name": "Saladas",
        "lat": -28.25384,
        "lon": -58.62591
    },
    "retiro": {
        "name": "Retiro",
        "lat": 40.41317,
        "lon": -3.68307
    },
    "resistencia": {
        "name": "Resistencia",
        "lat": -27.46056,
        "lon": -58.98389
    },
    "reconquista": {
        "name": "Reconquista",
        "lat": -29.15,
        "lon": -59.65
    },
    "quilmes": {
        "name": "Quilmes",
        "lat": -34.72904,
        "lon": -58.26374
    },
    "puerto rico": {
        "name": "Puerto Rico",
        "lat": -26.79598,
        "lon": -55.02402
    },
    "puerto iguazu": {
        "name": "Puerto Iguazú",
        "lat": -25.59912,
        "lon": -54.57355
    },
    "puerto esperanza": {
        "name": "Puerto Esperanza",
        "lat": -26.01517,
        "lon": -54.67306
    },
    "puerto eldorado": {
        "name": "Puerto Eldorado",
        "lat": -26.40843,
        "lon": -54.69463
    },
    "posadas": {
        "name": "Posadas",
        "lat": -27.36708,
        "lon": -55.89608
    },
    "pontevedra": {
        "name": "Pontevedra",
        "lat": 42.431,
        "lon": -8.64435
    },
    "pirane": {
        "name": "Pirané",
        "lat": -25.73239,
        "lon": -59.10879
    },
    "paso de los libres": {
        "name": "Paso de los Libres",
        "lat": -29.71251,
        "lon": -57.08771
    },
    "obera": {
        "name": "Oberá",
        "lat": -27.48706,
        "lon": -55.11994
    },
    "necochea": {
        "name": "Necochea",
        "lat": -38.5545,
        "lon": -58.73961
    },
    "moron": {
        "name": "Morón",
        "lat": 10.48889,
        "lon": -68.20028
    },
    "monte caseros": {
        "name": "Monte Caseros",
        "lat": -30.25359,
        "lon": -57.63626
    },
    "montecarlo": {
        "name": "Montecarlo",
        "lat": -26.5662,
        "lon": -54.757
    },
    "mercedes": {
        "name": "Mercedes",
        "lat": -33.2524,
        "lon": -58.03047
    },
    "mar del plata": {
        "name": "Mar del Plata",
        "lat": -38.00228,
        "lon": -57.55754
    },
    "lujan": {
        "name": "Luján",
        "lat": -34.57028,
        "lon": -59.105
    },
    "la plata": {
        "name": "La Plata",
        "lat": 2.39341,
        "lon": -75.89232
    },
    "la paz": {
        "name": "La Paz",
        "lat": -34.76031,
        "lon": -56.2259
    },
    "jardin america": {
        "name": "Jardín América",
        "lat": -27.04346,
        "lon": -55.22698
    },
    "gualeguaychu": {
        "name": "Gualeguaychú",
        "lat": -33.00937,
        "lon": -58.51722
    },
    "gualeguay": {
        "name": "Gualeguay",
        "lat": -33.14156,
        "lon": -59.30966
    },
    "goya": {
        "name": "Goya",
        "lat": -29.14395,
        "lon": -59.2651
    },
    "gobernador ingeniero valentin virasoro": {
        "name": "Gobernador Ingeniero Valentín Virasoro",
        "lat": -28.05,
        "lon": -56.03333
    },
    "general jose de san martin": {
        "name": "General José de San Martín",
        "lat": -26.53743,
        "lon": -59.34158
    },
    "garupa": {
        "name": "Garupá",
        "lat": -27.48171,
        "lon": -55.82921
    },
    "formosa": {
        "name": "Formosa",
        "lat": -15.53722,
        "lon": -47.33444
    },
    "fontana": {
        "name": "Fontana",
        "lat": 34.09223,
        "lon": -117.43505
    },
    "federal": {
        "name": "Federal",
        "lat": -30.95465,
        "lon": -58.78326
    },
    "esquina": {
        "name": "Esquina",
        "lat": -30.01444,
        "lon": -59.52719
    },
    "el soberbio": {
        "name": "El Soberbio",
        "lat": -27.29847,
        "lon": -54.19877
    },
    "dolores": {
        "name": "Dolores",
        "lat": -33.53009,
        "lon": -58.21701
    },
    "curuzu cuatia": {
        "name": "Curuzú Cuatiá",
        "lat": -29.79171,
        "lon": -58.0546
    },
    "corrientes": {
        "name": "Corrientes",
        "lat": -27.4806,
        "lon": -58.8341
    },
    "concordia": {
        "name": "Concórdia",
        "lat": -27.23417,
        "lon": -52.02778
    },
    "concepcion del uruguay": {
        "name": "Concepción del Uruguay",
        "lat": -32.48249,
        "lon": -58.23722
    },
    "colegiales": {
        "name": "Colegiales",
        "lat": -34.57365,
        "lon": -58.44924
    },
    "chajari": {
        "name": "Chajarí",
        "lat": -30.75048,
        "lon": -57.97962
    },
    "campana": {
        "name": "Campana",
        "lat": -34.16874,
        "lon": -58.95914
    },
    "buenos aires": {
        "name": "Buenos Aires",
        "lat": -34.61315,
        "lon": -58.37723
    },
    "barranqueras": {
        "name": "Barranqueras",
        "lat": -27.48132,
        "lon": -58.93925
    },
    "azul": {
        "name": "Azul",
        "lat": -36.77698,
        "lon": -59.85854
    },
    "avellaneda": {
        "name": "Avellaneda",
        "lat": -29.11761,
        "lon": -59.65834
    },
    "aristobulo del valle": {
        "name": "Aristóbulo del Valle",
        "lat": -27.09625,
        "lon": -54.89626
    },
    "zapala": {
        "name": "Zapala",
        "lat": -38.89916,
        "lon": -70.05442
    },
    "yerba buena": {
        "name": "Yerba Buena",
        "lat": -26.81667,
        "lon": -65.31667
    },
    "villa regina": {
        "name": "Villa Regina",
        "lat": -39.1,
        "lon": -67.06667
    },
    "villa paula de sarmiento": {
        "name": "Villa Paula de Sarmiento",
        "lat": -31.4933,
        "lon": -68.53838
    },
    "villa nueva": {
        "name": "Villa Nueva",
        "lat": 14.52694,
        "lon": -90.5875
    },
    "villa maria": {
        "name": "Villa María",
        "lat": -32.40751,
        "lon": -63.24016
    },
    "villa dolores": {
        "name": "Villa Dolores",
        "lat": -31.94585,
        "lon": -65.18958
    },
    "villa constitucion": {
        "name": "Villa Constitución",
        "lat": -33.22778,
        "lon": -60.3297
    },
    "villa carlos paz": {
        "name": "Villa Carlos Paz",
        "lat": -31.42414,
        "lon": -64.49778
    },
    "villa angela": {
        "name": "Villa Ángela",
        "lat": -27.57383,
        "lon": -60.71526
    },
    "villa allende": {
        "name": "Villa Allende",
        "lat": -31.29458,
        "lon": -64.29538
    },
    "viedma": {
        "name": "Viedma",
        "lat": -40.81345,
        "lon": -62.99668
    },
    "victoria": {
        "name": "Victoria",
        "lat": 28.80527,
        "lon": -97.0036
    },
    "vera": {
        "name": "Vera",
        "lat": -29.4593,
        "lon": -60.21261
    },
    "venado tuerto": {
        "name": "Venado Tuerto",
        "lat": -33.74556,
        "lon": -61.96885
    },
    "veinticinco de mayo": {
        "name": "Veinticinco de Mayo",
        "lat": -35.4323,
        "lon": -60.17271
    },
    "ushuaia": {
        "name": "Ushuaia",
        "lat": -54.8,
        "lon": -68.3
    },
    "unquillo": {
        "name": "Unquillo",
        "lat": -31.23073,
        "lon": -64.31615
    },
    "tres isletas": {
        "name": "Tres Isletas",
        "lat": -26.34067,
        "lon": -60.43207
    },
    "tres arroyos": {
        "name": "Tres Arroyos",
        "lat": -38.37394,
        "lon": -60.27978
    },
    "trelew": {
        "name": "Trelew",
        "lat": -43.24895,
        "lon": -65.30505
    },
    "termas de rio hondo": {
        "name": "Termas de Río Hondo",
        "lat": -27.49362,
        "lon": -64.85972
    },
    "tartagal": {
        "name": "Tartagal",
        "lat": -22.51637,
        "lon": -63.80131
    },
    "tafi viejo": {
        "name": "Tafí Viejo",
        "lat": -26.73201,
        "lon": -65.25921
    },
    "sunchales": {
        "name": "Sunchales",
        "lat": -30.94404,
        "lon": -61.56148
    },
    "santiago del estero": {
        "name": "Santiago del Estero",
        "lat": -27.79511,
        "lon": -64.26149
    },
    "santa rosa": {
        "name": "Santa Rosa",
        "lat": 38.44047,
        "lon": -122.71443
    },
    "santa lucia": {
        "name": "Santa Lucía",
        "lat": -34.45333,
        "lon": -56.39056
    },
    "santa fe de la vera cruz": {
        "name": "Santa Fe de la Vera Cruz",
        "lat": -31.63333,
        "lon": -60.7
    },
    "san salvador de jujuy": {
        "name": "San Salvador de Jujuy",
        "lat": -24.19457,
        "lon": -65.29712
    },
    "san ramon de la nueva oran": {
        "name": "San Ramón de la Nueva Orán",
        "lat": -23.13705,
        "lon": -64.32426
    },
    "san rafael": {
        "name": "San Rafael",
        "lat": 37.97353,
        "lon": -122.53109
    },
    "san nicolas de los arroyos": {
        "name": "San Nicolás de los Arroyos",
        "lat": -33.33578,
        "lon": -60.22523
    },
    "san miguel de tucuman": {
        "name": "San Miguel de Tucumán",
        "lat": -26.82414,
        "lon": -65.2226
    },
    "san martin de los andes": {
        "name": "San Martín de los Andes",
        "lat": -40.15789,
        "lon": -71.35337
    },
    "san martin": {
        "name": "San Martín",
        "lat": 13.78333,
        "lon": -88.91667
    },
    "san luis": {
        "name": "San Luis",
        "lat": 32.487,
        "lon": -114.78218
    },
    "san justo": {
        "name": "San Justo",
        "lat": -30.78913,
        "lon": -60.59189
    },
    "san juan": {
        "name": "San Juan",
        "lat": 26.18924,
        "lon": -98.15529
    },
    "san jose de jachal": {
        "name": "San José de Jáchal",
        "lat": -30.24057,
        "lon": -68.74693
    },
    "san jorge": {
        "name": "San Jorge",
        "lat": -31.89618,
        "lon": -61.85984
    },
    "san francisco": {
        "name": "San Francisco",
        "lat": 37.77493,
        "lon": -122.41942
    },
    "san fernando del valle de catamarca": {
        "name": "San Fernando del Valle de Catamarca",
        "lat": -28.46957,
        "lon": -65.78524
    },
    "salta": {
        "name": "Salta",
        "lat": -24.7859,
        "lon": -65.41166
    },
    "rufino": {
        "name": "Rufino",
        "lat": -34.26827,
        "lon": -62.71262
    },
    "rosario": {
        "name": "Rosario",
        "lat": -32.94682,
        "lon": -60.63932
    },
    "rio tercero": {
        "name": "Río Tercero",
        "lat": -32.17301,
        "lon": -64.11405
    },
    "rio segundo": {
        "name": "Río Segundo",
        "lat": -31.6526,
        "lon": -63.9099
    },
    "rio gallegos": {
        "name": "Río Gallegos",
        "lat": -51.62261,
        "lon": -69.21813
    },
    "rio cuarto": {
        "name": "Río Cuarto",
        "lat": -33.13067,
        "lon": -64.34992
    },
    "rio ceballos": {
        "name": "Río Ceballos",
        "lat": -31.16486,
        "lon": -64.32241
    },
    "rawson": {
        "name": "Rawson",
        "lat": -43.30016,
        "lon": -65.10228
    },
    "rafaela": {
        "name": "Rafaela",
        "lat": -31.25033,
        "lon": -61.4867
    },
    "quitilipi": {
        "name": "Quitilipi",
        "lat": -26.86913,
        "lon": -60.21683
    },
    "punta alta": {
        "name": "Punta Alta",
        "lat": -38.87588,
        "lon": -62.07359
    },
    "puerto madryn": {
        "name": "Puerto Madryn",
        "lat": -42.7692,
        "lon": -65.03851
    },
    "presidencia roque saenz pena": {
        "name": "Presidencia Roque Sáenz Peña",
        "lat": -26.78522,
        "lon": -60.43876
    },
    "pocito": {
        "name": "Pocito",
        "lat": -31.68333,
        "lon": -68.58333
    },
    "plottier": {
        "name": "Plottier",
        "lat": -38.96667,
        "lon": -68.23333
    },
    "pergamino": {
        "name": "Pergamino",
        "lat": -33.88995,
        "lon": -60.57357
    },
    "perez": {
        "name": "Pérez",
        "lat": -32.99835,
        "lon": -60.76791
    },
    "parana": {
        "name": "Paraná",
        "lat": -31.73197,
        "lon": -60.5238
    },
    "palpala": {
        "name": "Palpalá",
        "lat": -24.25647,
        "lon": -65.21163
    },
    "olavarria": {
        "name": "Olavarría",
        "lat": -36.89272,
        "lon": -60.32254
    },
    "nueve de julio": {
        "name": "Nueve de Julio",
        "lat": -35.44437,
        "lon": -60.88313
    },
    "neuquen": {
        "name": "Neuquén",
        "lat": -38.95161,
        "lon": -68.0591
    },
    "morteros": {
        "name": "Morteros",
        "lat": -30.71164,
        "lon": -61.99862
    },
    "monteros": {
        "name": "Monteros",
        "lat": -27.16741,
        "lon": -65.49832
    },
    "mendoza": {
        "name": "Mendoza",
        "lat": -32.89084,
        "lon": -68.82717
    },
    "marcos juarez": {
        "name": "Marcos Juárez",
        "lat": -32.6978,
        "lon": -62.10672
    },
    "machagai": {
        "name": "Machagai",
        "lat": -26.92614,
        "lon": -60.04955
    },
    "gueret": {
        "name": "Guéret",
        "lat": 46.16667,
        "lon": 1.86667
    },
    "lincoln": {
        "name": "Lincoln",
        "lat": 53.22683,
        "lon": -0.53792
    },
    "libertador general san martin": {
        "name": "Libertador General San Martín",
        "lat": -23.80644,
        "lon": -64.78757
    },
    "las brenas": {
        "name": "Las Breñas",
        "lat": -27.08966,
        "lon": -61.08161
    },
    "la rioja": {
        "name": "La Rioja",
        "lat": -29.41105,
        "lon": -66.85067
    },
    "la falda": {
        "name": "La Falda",
        "lat": -31.08841,
        "lon": -64.48987
    },
    "la calera": {
        "name": "La Calera",
        "lat": -31.34377,
        "lon": -64.33529
    },
    "laboulaye": {
        "name": "Laboulaye",
        "lat": -34.12662,
        "lon": -63.39119
    },
    "junin": {
        "name": "Junín",
        "lat": -11.15895,
        "lon": -75.99304
    },
    "joaquin v. gonzalez": {
        "name": "Joaquín V. González",
        "lat": -25.08333,
        "lon": -64.18333
    },
    "jesus maria": {
        "name": "Jesús María",
        "lat": 21.96111,
        "lon": -102.34333
    },
    "granadero baigorria": {
        "name": "Granadero Baigorria",
        "lat": -32.85683,
        "lon": -60.71754
    },
    "gobernador galvez": {
        "name": "Gobernador Gálvez",
        "lat": -33.03016,
        "lon": -60.64045
    },
    "general villegas": {
        "name": "General Villegas",
        "lat": -35.03285,
        "lon": -63.01252
    },
    "general roca": {
        "name": "General Roca",
        "lat": -39.03333,
        "lon": -67.58333
    },
    "general pinedo": {
        "name": "General Pinedo",
        "lat": -27.31667,
        "lon": -61.28333
    },
    "general pico": {
        "name": "General Pico",
        "lat": -35.65662,
        "lon": -63.75682
    },
    "general enrique mosconi": {
        "name": "General Enrique Mosconi",
        "lat": -22.59588,
        "lon": -63.81255
    },
    "galvez": {
        "name": "Gálvez",
        "lat": -32.02927,
        "lon": -61.22103
    },
    "firmat": {
        "name": "Firmat",
        "lat": -33.45937,
        "lon": -61.4832
    },
    "famailla": {
        "name": "Famaillá",
        "lat": -27.05413,
        "lon": -65.40329
    },
    "esquel": {
        "name": "Esquel",
        "lat": -42.91147,
        "lon": -71.31947
    },
    "esperanza": {
        "name": "Esperanza",
        "lat": 19.58469,
        "lon": -70.98489
    },
    "embarcacion": {
        "name": "Embarcación",
        "lat": -23.21003,
        "lon": -64.09965
    },
    "embalse": {
        "name": "Embalse",
        "lat": -32.18,
        "lon": -64.41809
    },
    "el bolson": {
        "name": "El Bolsón",
        "lat": -41.96051,
        "lon": -71.53336
    },
    "diamante": {
        "name": "Diamante",
        "lat": -32.06641,
        "lon": -60.63837
    },
    "dean funes": {
        "name": "Deán Funes",
        "lat": -30.42036,
        "lon": -64.34984
    },
    "cutral-co": {
        "name": "Cutral-Có",
        "lat": -38.93424,
        "lon": -69.23052
    },
    "cruz del eje": {
        "name": "Cruz del Eje",
        "lat": -30.72644,
        "lon": -64.80387
    },
    "crespo": {
        "name": "Crespo",
        "lat": -32.02873,
        "lon": -60.30658
    },
    "cosquin": {
        "name": "Cosquín",
        "lat": -31.24508,
        "lon": -64.46563
    },
    "coronel suarez": {
        "name": "Coronel Suárez",
        "lat": -37.45467,
        "lon": -61.93343
    },
    "coronda": {
        "name": "Coronda",
        "lat": -31.97263,
        "lon": -60.91983
    },
    "cordoba": {
        "name": "Córdoba",
        "lat": 37.89155,
        "lon": -4.77275
    },
    "comodoro rivadavia": {
        "name": "Comodoro Rivadavia",
        "lat": -45.86413,
        "lon": -67.49656
    },
    "cipolletti": {
        "name": "Cipolletti",
        "lat": -38.93392,
        "lon": -67.99032
    },
    "cinco saltos": {
        "name": "Cinco Saltos",
        "lat": -38.82225,
        "lon": -68.06293
    },
    "chivilcoy": {
        "name": "Chivilcoy",
        "lat": -34.89566,
        "lon": -60.01667
    },
    "chimbas": {
        "name": "Chimbas",
        "lat": -31.48333,
        "lon": -68.53333
    },
    "chilecito": {
        "name": "Chilecito",
        "lat": -29.16195,
        "lon": -67.4974
    },
    "charata": {
        "name": "Charata",
        "lat": -27.21438,
        "lon": -61.18795
    },
    "chacabuco": {
        "name": "Chacabuco",
        "lat": -34.64167,
        "lon": -60.47389
    },
    "centenario": {
        "name": "Centenario",
        "lat": -38.82955,
        "lon": -68.1318
    },
    "caucete": {
        "name": "Caucete",
        "lat": -31.65179,
        "lon": -68.28105
    },
    "catriel": {
        "name": "Catriel",
        "lat": -37.87907,
        "lon": -67.7956
    },
    "castelli": {
        "name": "Castelli",
        "lat": -25.94679,
        "lon": -60.61947
    },
    "casilda": {
        "name": "Casilda",
        "lat": -33.04417,
        "lon": -61.16806
    },
    "carcarana": {
        "name": "Carcarañá",
        "lat": -32.85679,
        "lon": -61.15331
    },
    "capitan bermudez": {
        "name": "Capitán Bermúdez",
        "lat": -32.82262,
        "lon": -60.71852
    },
    "canada de gomez": {
        "name": "Cañada de Gómez",
        "lat": -32.81636,
        "lon": -61.39493
    },
    "caleta olivia": {
        "name": "Caleta Olivia",
        "lat": -46.43929,
        "lon": -67.52814
    },
    "bell ville": {
        "name": "Bell Ville",
        "lat": -32.62591,
        "lon": -62.68873
    },
    "bella vista": {
        "name": "Bella Vista",
        "lat": 36.4807,
        "lon": -94.27134
    },
    "bahia blanca": {
        "name": "Bahía Blanca",
        "lat": -38.71959,
        "lon": -62.27243
    },
    "arroyo seco": {
        "name": "Arroyo Seco",
        "lat": -33.15489,
        "lon": -60.50863
    },
    "arroyito": {
        "name": "Arroyito",
        "lat": -31.42022,
        "lon": -63.05002
    },
    "anatuya": {
        "name": "Añatuya",
        "lat": -28.46064,
        "lon": -62.83472
    },
    "alta gracia": {
        "name": "Alta Gracia",
        "lat": -31.65292,
        "lon": -64.42826
    },
    "allen": {
        "name": "Allen",
        "lat": 33.10317,
        "lon": -96.67055
    },
    "alderetes": {
        "name": "Alderetes",
        "lat": -26.81667,
        "lon": -65.13333
    },
    "albardon": {
        "name": "Albardón",
        "lat": -31.43722,
        "lon": -68.52556
    },
    "aguilares": {
        "name": "Aguilares",
        "lat": 13.95722,
        "lon": -89.18972
    },
    "villa santa rita": {
        "name": "Villa Santa Rita",
        "lat": -34.61082,
        "lon": -58.481
    },
    "villa mercedes": {
        "name": "Villa Mercedes",
        "lat": -33.67571,
        "lon": -65.45783
    },
    "san carlos de bariloche": {
        "name": "San Carlos de Bariloche",
        "lat": -41.14557,
        "lon": -71.30822
    },
    "adrogue": {
        "name": "Adrogué",
        "lat": -34.80041,
        "lon": -58.38384
    },
    "pago pago": {
        "name": "Pago Pago",
        "lat": -14.27806,
        "lon": -170.7025
    },
    "wolfsberg": {
        "name": "Wolfsberg",
        "lat": 46.84056,
        "lon": 14.84417
    },
    "wiener neustadt": {
        "name": "Wiener Neustadt",
        "lat": 47.8,
        "lon": 16.25
    },
    "vienna": {
        "name": "Vienna",
        "lat": 38.90122,
        "lon": -77.26526
    },
    "wels": {
        "name": "Wels",
        "lat": 48.16667,
        "lon": 14.03333
    },
    "weinzierl bei krems": {
        "name": "Weinzierl bei Krems",
        "lat": 48.4,
        "lon": 15.6
    },
    "villach": {
        "name": "Villach",
        "lat": 46.61028,
        "lon": 13.85583
    },
    "traun": {
        "name": "Traun",
        "lat": 48.22656,
        "lon": 14.23459
    },
    "traiskirchen": {
        "name": "Traiskirchen",
        "lat": 48.01485,
        "lon": 16.29324
    },
    "ternitz": {
        "name": "Ternitz",
        "lat": 47.71565,
        "lon": 16.03575
    },
    "steyr": {
        "name": "Steyr",
        "lat": 48.04274,
        "lon": 14.42127
    },
    "spittal an der drau": {
        "name": "Spittal an der Drau",
        "lat": 46.8,
        "lon": 13.5
    },
    "schwechat": {
        "name": "Schwechat",
        "lat": 48.13333,
        "lon": 16.46667
    },
    "guerande": {
        "name": "Guérande",
        "lat": 47.32911,
        "lon": -2.42829
    },
    "sankt polten": {
        "name": "Sankt Pölten",
        "lat": 48.2,
        "lon": 15.63333
    },
    "salzburg": {
        "name": "Salzburg",
        "lat": 47.79941,
        "lon": 13.04399
    },
    "saalfelden am steinernen meer": {
        "name": "Saalfelden am Steinernen Meer",
        "lat": 47.42681,
        "lon": 12.848
    },
    "modling": {
        "name": "Mödling",
        "lat": 48.08605,
        "lon": 16.28921
    },
    "morlaix": {
        "name": "Morlaix",
        "lat": 48.58333,
        "lon": -3.83333
    },
    "lustenau": {
        "name": "Lustenau",
        "lat": 47.42642,
        "lon": 9.65851
    },
    "linz": {
        "name": "Linz",
        "lat": 48.30639,
        "lon": 14.28611
    },
    "leonding": {
        "name": "Leonding",
        "lat": 48.27965,
        "lon": 14.2533
    },
    "leoben": {
        "name": "Leoben",
        "lat": 47.3765,
        "lon": 15.09144
    },
    "kufstein": {
        "name": "Kufstein",
        "lat": 47.58333,
        "lon": 12.16667
    },
    "krems an der donau": {
        "name": "Krems an der Donau",
        "lat": 48.40921,
        "lon": 15.61415
    },
    "klosterneuburg": {
        "name": "Klosterneuburg",
        "lat": 48.30521,
        "lon": 16.32522
    },
    "klagenfurt am worthersee": {
        "name": "Klagenfurt am Wörthersee",
        "lat": 46.62472,
        "lon": 14.30528
    },
    "kapfenberg": {
        "name": "Kapfenberg",
        "lat": 47.44458,
        "lon": 15.29331
    },
    "innsbruck": {
        "name": "Innsbruck",
        "lat": 47.26266,
        "lon": 11.39454
    },
    "hallein": {
        "name": "Hallein",
        "lat": 47.68333,
        "lon": 13.1
    },
    "dinajpur": {
        "name": "Dinājpur",
        "lat": 25.62745,
        "lon": 88.63779
    },
    "graz": {
        "name": "Graz",
        "lat": 47.06667,
        "lon": 15.45
    },
    "feldkirch": {
        "name": "Feldkirch",
        "lat": 47.23306,
        "lon": 9.6
    },
    "dornbirn": {
        "name": "Dornbirn",
        "lat": 47.41427,
        "lon": 9.74195
    },
    "bregenz": {
        "name": "Bregenz",
        "lat": 47.50311,
        "lon": 9.7471
    },
    "braunau am inn": {
        "name": "Braunau am Inn",
        "lat": 48.25628,
        "lon": 13.04343
    },
    "baden": {
        "name": "Baden",
        "lat": 47.47333,
        "lon": 8.30592
    },
    "amstetten": {
        "name": "Amstetten",
        "lat": 48.1229,
        "lon": 14.87206
    },
    "ansfelden": {
        "name": "Ansfelden",
        "lat": 47.965,
        "lon": 13.04944
    },
    "katerini": {
        "name": "Kateríni",
        "lat": 40.26956,
        "lon": 22.50608
    },
    "fizuli": {
        "name": "Fizuli",
        "lat": 39.60094,
        "lon": 47.14529
    },
    "beylagan": {
        "name": "Beylagan",
        "lat": 39.77556,
        "lon": 47.61861
    },
    "maroubra": {
        "name": "Maroubra",
        "lat": -33.95,
        "lon": 151.23333
    },
    "langwarrin": {
        "name": "Langwarrin",
        "lat": -38.16667,
        "lon": 145.16667
    },
    "montfermeil": {
        "name": "Montfermeil",
        "lat": 48.8982,
        "lon": 2.57913
    },
    "earlwood": {
        "name": "Earlwood",
        "lat": -33.95,
        "lon": 151.1
    },
    "montargis": {
        "name": "Montargis",
        "lat": 48,
        "lon": 2.75
    },
    "dzhalilabad": {
        "name": "Dzhalilabad",
        "lat": 39.20963,
        "lon": 48.49186
    },
    "oranjestad": {
        "name": "Oranjestad",
        "lat": 12.52398,
        "lon": -70.02703
    },
    "babijn": {
        "name": "Babijn",
        "lat": 12.53333,
        "lon": -69.98333
    },
    "angochi": {
        "name": "Angochi",
        "lat": 12.51667,
        "lon": -69.95
    },
    "xankandi": {
        "name": "Xankandi",
        "lat": 39.8177,
        "lon": 46.7528
    },
    "hmdbyli": {
        "name": "Əhmədbəyli",
        "lat": 39.87867,
        "lon": 48.39901
    },
    "shushi": {
        "name": "Shushi",
        "lat": 39.76006,
        "lon": 46.74989
    },
    "salyan": {
        "name": "Salyan",
        "lat": 39.59621,
        "lon": 48.98479
    },
    "saatl": {
        "name": "Saatlı",
        "lat": 39.93214,
        "lon": 48.36892
    },
    "neftcala": {
        "name": "Neftçala",
        "lat": 39.3768,
        "lon": 49.247
    },
    "nakhchivan": {
        "name": "Nakhchivan",
        "lat": 39.20889,
        "lon": 45.41222
    },
    "lankaran": {
        "name": "Lankaran",
        "lat": 38.75428,
        "lon": 48.85062
    },
    "imishli": {
        "name": "Imishli",
        "lat": 39.87095,
        "lon": 48.05995
    },
    "pushkino": {
        "name": "Pushkino",
        "lat": 56.01722,
        "lon": 37.86667
    },
    "astara": {
        "name": "Āstārā",
        "lat": 38.4291,
        "lon": 48.872
    },
    "sirvan": {
        "name": "Şirvan",
        "lat": 39.93778,
        "lon": 48.929
    },
    "agdam": {
        "name": "Ağdam",
        "lat": 39.99096,
        "lon": 46.92736
    },
    "zaqatala": {
        "name": "Zaqatala",
        "lat": 41.6316,
        "lon": 46.64479
    },
    "zabrat": {
        "name": "Zabrat",
        "lat": 40.47746,
        "lon": 49.94174
    },
    "yevlakh": {
        "name": "Yevlakh",
        "lat": 40.61832,
        "lon": 47.15014
    },
    "yelenendorf": {
        "name": "Yelenendorf",
        "lat": 40.58584,
        "lon": 46.3189
    },
    "xacmaz": {
        "name": "Xaçmaz",
        "lat": 41.46426,
        "lon": 48.80565
    },
    "ujar": {
        "name": "Ujar",
        "lat": 40.51902,
        "lon": 47.65423
    },
    "terter": {
        "name": "Terter",
        "lat": 40.34179,
        "lon": 46.93242
    },
    "sumqayt": {
        "name": "Sumqayıt",
        "lat": 40.58972,
        "lon": 49.66861
    },
    "qaracuxur": {
        "name": "Qaraçuxur",
        "lat": 40.39667,
        "lon": 49.97361
    },
    "shamkhor": {
        "name": "Shamkhor",
        "lat": 40.82975,
        "lon": 46.0178
    },
    "shamakhi": {
        "name": "Shamakhi",
        "lat": 40.63141,
        "lon": 48.64137
    },
    "sheki": {
        "name": "Sheki",
        "lat": 41.19194,
        "lon": 47.17056
    },
    "sabuncu": {
        "name": "Sabunçu",
        "lat": 40.4425,
        "lon": 49.94806
    },
    "sabirabad": {
        "name": "Sabirabad",
        "lat": 40.00869,
        "lon": 48.47701
    },
    "qusar": {
        "name": "Qusar",
        "lat": 41.4275,
        "lon": 48.4302
    },
    "quba": {
        "name": "Quba",
        "lat": 41.36108,
        "lon": 48.51341
    },
    "hacqabul": {
        "name": "Hacıqabul",
        "lat": 40.03874,
        "lon": 48.94286
    },
    "qazax": {
        "name": "Qazax",
        "lat": 41.09246,
        "lon": 45.36561
    },
    "hac zeynalabdin": {
        "name": "Hacı Zeynalabdin",
        "lat": 40.62333,
        "lon": 49.55861
    },
    "mingelchaur": {
        "name": "Mingelchaur",
        "lat": 40.76395,
        "lon": 47.05953
    },
    "mastaga": {
        "name": "Maştağa",
        "lat": 40.52983,
        "lon": 50.00616
    },
    "mardakan": {
        "name": "Mardakan",
        "lat": 40.49182,
        "lon": 50.14292
    },
    "lokbatan": {
        "name": "Lökbatan",
        "lat": 40.3256,
        "lon": 49.73376
    },
    "kyurdarmir": {
        "name": "Kyurdarmir",
        "lat": 40.34532,
        "lon": 48.15085
    },
    "khirdalan": {
        "name": "Khirdalan",
        "lat": 40.44808,
        "lon": 49.75502
    },
    "yeni suraxan": {
        "name": "Yeni Suraxanı",
        "lat": 40.43026,
        "lon": 50.03598
    },
    "geoktschai": {
        "name": "Geoktschai",
        "lat": 40.65055,
        "lon": 47.74219
    },
    "hovsan": {
        "name": "Hövsan",
        "lat": 40.37444,
        "lon": 50.08528
    },
    "ganja": {
        "name": "Ganja",
        "lat": 40.68278,
        "lon": 46.36056
    },
    "divichibazar": {
        "name": "Divichibazar",
        "lat": 41.20117,
        "lon": 48.98712
    },
    "buzovna": {
        "name": "Buzovna",
        "lat": 40.51903,
        "lon": 50.11438
    },
    "biny selo": {
        "name": "Biny Selo",
        "lat": 40.45076,
        "lon": 50.08686
    },
    "barda": {
        "name": "Barda",
        "lat": 40.37577,
        "lon": 47.12619
    },
    "bilajari": {
        "name": "Bilajari",
        "lat": 40.4444,
        "lon": 49.80566
    },
    "baku": {
        "name": "Baku",
        "lat": 40.37767,
        "lon": 49.89201
    },
    "amirdzhan": {
        "name": "Amirdzhan",
        "lat": 40.42639,
        "lon": 49.98361
    },
    "aghsu": {
        "name": "Aghsu",
        "lat": 40.57028,
        "lon": 48.40087
    },
    "agdas": {
        "name": "Ağdaş",
        "lat": 40.64699,
        "lon": 47.4738
    },
    "agdzhabedy": {
        "name": "Agdzhabedy",
        "lat": 40.05015,
        "lon": 47.45937
    },
    "bakxanov": {
        "name": "Bakıxanov",
        "lat": 40.41894,
        "lon": 49.96693
    },
    "zenica": {
        "name": "Zenica",
        "lat": 44.20169,
        "lon": 17.90397
    },
    "visoko": {
        "name": "Visoko",
        "lat": 43.98889,
        "lon": 18.17806
    },
    "velika kladusa": {
        "name": "Velika Kladuša",
        "lat": 45.18497,
        "lon": 15.80579
    },
    "tuzla": {
        "name": "Tuzla",
        "lat": 44.53842,
        "lon": 18.66709
    },
    "trebinje": {
        "name": "Trebinje",
        "lat": 42.71197,
        "lon": 18.34362
    },
    "travnik": {
        "name": "Travnik",
        "lat": 44.22637,
        "lon": 17.66583
    },
    "sarajevo": {
        "name": "Sarajevo",
        "lat": 43.84864,
        "lon": 18.35644
    },
    "prijedor": {
        "name": "Prijedor",
        "lat": 44.97991,
        "lon": 16.71401
    },
    "mostar": {
        "name": "Mostar",
        "lat": 43.34333,
        "lon": 17.80806
    },
    "gradacac": {
        "name": "Gradačac",
        "lat": 44.87851,
        "lon": 18.42764
    },
    "gracanica": {
        "name": "Gračanica",
        "lat": 44.70307,
        "lon": 18.3101
    },
    "wittenheim": {
        "name": "Wittenheim",
        "lat": 47.8078,
        "lon": 7.33702
    },
    "laksham": {
        "name": "Lākshām",
        "lat": 23.24018,
        "lon": 91.12143
    },
    "gorazde": {
        "name": "Goražde",
        "lat": 43.66795,
        "lon": 18.97564
    },
    "doboj": {
        "name": "Doboj",
        "lat": 44.73179,
        "lon": 18.08698
    },
    "orsay": {
        "name": "Orsay",
        "lat": 48.69572,
        "lon": 2.18727
    },
    "cazin": {
        "name": "Cazin",
        "lat": 44.96694,
        "lon": 15.94306
    },
    "bugojno": {
        "name": "Bugojno",
        "lat": 44.05722,
        "lon": 17.45083
    },
    "brcko": {
        "name": "Brčko",
        "lat": 44.86995,
        "lon": 18.81012
    },
    "bosanska krupa": {
        "name": "Bosanska Krupa",
        "lat": 44.8825,
        "lon": 16.15139
    },
    "bijeljina": {
        "name": "Bijeljina",
        "lat": 44.75874,
        "lon": 19.21437
    },
    "bihac": {
        "name": "Bihać",
        "lat": 44.81694,
        "lon": 15.87083
    },
    "banja luka": {
        "name": "Banja Luka",
        "lat": 44.77842,
        "lon": 17.19386
    },
    "comilla": {
        "name": "Comilla",
        "lat": 23.46186,
        "lon": 91.18503
    },
    "konjic": {
        "name": "Konjic",
        "lat": 43.65126,
        "lon": 17.96082
    },
    "bridgetown": {
        "name": "Bridgetown",
        "lat": 13.10732,
        "lon": -59.62021
    },
    "thakurgaon": {
        "name": "Thākurgaon",
        "lat": 26.03097,
        "lon": 88.46989
    },
    "teknaf": {
        "name": "Teknāf",
        "lat": 20.85829,
        "lon": 92.29773
    },
    "tungi": {
        "name": "Tungi",
        "lat": 23.89154,
        "lon": 90.40232
    },
    "sylhet": {
        "name": "Sylhet",
        "lat": 24.89904,
        "lon": 91.87198
    },
    "dohar": {
        "name": "Dohār",
        "lat": 23.59311,
        "lon": 90.14251
    },
    "jamalpur": {
        "name": "Jamālpur",
        "lat": 25.31258,
        "lon": 86.48888
    },
    "shibganj": {
        "name": "Shibganj",
        "lat": 24.68501,
        "lon": 88.15638
    },
    "satkhira": {
        "name": "Sātkhira",
        "lat": 22.70817,
        "lon": 89.07185
    },
    "sirajganj": {
        "name": "Sirājganj",
        "lat": 24.45771,
        "lon": 89.70802
    },
    "netrakona": {
        "name": "Netrakona",
        "lat": 24.88352,
        "lon": 90.72898
    },
    "narsingdi": {
        "name": "Narsingdi",
        "lat": 23.92298,
        "lon": 90.71768
    },
    "sandwip": {
        "name": "Sandwīp",
        "lat": 22.51409,
        "lon": 91.45491
    },
    "shahzadpur": {
        "name": "Shāhzādpur",
        "lat": 24.17687,
        "lon": 89.5988
    },
    "ramganj": {
        "name": "Rāmganj",
        "lat": 23.1006,
        "lon": 90.84989
    },
    "rajshahi": {
        "name": "Rājshāhi",
        "lat": 24.374,
        "lon": 88.60114
    },
    "pirojpur": {
        "name": "Pirojpur",
        "lat": 22.57965,
        "lon": 89.97521
    },
    "panchagarh": {
        "name": "Panchagarh",
        "lat": 26.33338,
        "lon": 88.55777
    },
    "patiya": {
        "name": "Patiya",
        "lat": 22.29543,
        "lon": 91.979
    },
    "parbatipur": {
        "name": "Parbatipur",
        "lat": 25.66369,
        "lon": 88.93093
    },
    "narayanganj": {
        "name": "Nārāyanganj",
        "lat": 23.61352,
        "lon": 90.50298
    },
    "nalchiti": {
        "name": "Nālchiti",
        "lat": 22.63696,
        "lon": 90.27195
    },
    "nagarpur": {
        "name": "Nāgarpur",
        "lat": 24.05783,
        "lon": 89.87696
    },
    "nageswari": {
        "name": "Nageswari",
        "lat": 25.96817,
        "lon": 89.69153
    },
    "mymensingh": {
        "name": "Mymensingh",
        "lat": 24.75636,
        "lon": 90.40646
    },
    "muktagacha": {
        "name": "Muktāgācha",
        "lat": 24.76484,
        "lon": 90.25698
    },
    "mirzapur": {
        "name": "Mirzāpur",
        "lat": 25.1449,
        "lon": 82.56534
    },
    "maulavi bazar": {
        "name": "Maulavi Bāzār",
        "lat": 24.48888,
        "lon": 91.77075
    },
    "morrelgonj": {
        "name": "Morrelgonj",
        "lat": 22.45566,
        "lon": 89.85584
    },
    "mehendiganj": {
        "name": "Mehendiganj",
        "lat": 22.82257,
        "lon": 90.52859
    },
    "mathba": {
        "name": "Mathba",
        "lat": 22.28616,
        "lon": 89.95883
    },
    "lalmanirhat": {
        "name": "Lalmanirhat",
        "lat": 25.91719,
        "lon": 89.44595
    },
    "kushtia": {
        "name": "Kushtia",
        "lat": 23.9028,
        "lon": 89.11943
    },
    "kaliganj": {
        "name": "Kālīganj",
        "lat": 23.40964,
        "lon": 89.13801
    },
    "jhingergacha": {
        "name": "Jhingergācha",
        "lat": 23.11134,
        "lon": 89.09061
    },
    "joypur hat": {
        "name": "Joypur Hāt",
        "lat": 25.10147,
        "lon": 89.02734
    },
    "ishurdi": {
        "name": "Ishurdi",
        "lat": 24.12858,
        "lon": 89.06573
    },
    "habiganj": {
        "name": "Habiganj",
        "lat": 24.38044,
        "lon": 91.41299
    },
    "gaurnadi": {
        "name": "Gaurnadi",
        "lat": 22.97372,
        "lon": 90.22376
    },
    "gafargaon": {
        "name": "Gafargaon",
        "lat": 24.432,
        "lon": 90.5585
    },
    "feni": {
        "name": "Feni",
        "lat": 23.0144,
        "lon": 91.3966
    },
    "raipur": {
        "name": "Raipur",
        "lat": 21.23333,
        "lon": 81.63333
    },
    "sarankhola": {
        "name": "Sarankhola",
        "lat": 22.31006,
        "lon": 89.79113
    },
    "dhaka": {
        "name": "Dhāka",
        "lat": 26.67479,
        "lon": 85.16698
    },
    "chilmari": {
        "name": "Chilmāri",
        "lat": 25.55613,
        "lon": 89.67097
    },
    "chhagalnaiya": {
        "name": "Chhāgalnāiya",
        "lat": 23.02475,
        "lon": 91.51091
    },
    "lalmohan": {
        "name": "Lālmohan",
        "lat": 22.33774,
        "lon": 90.73708
    },
    "khagrachhari": {
        "name": "Khagrachhari",
        "lat": 23.10787,
        "lon": 91.97007
    },
    "chhatak": {
        "name": "Chhātak",
        "lat": 25.03852,
        "lon": 91.66958
    },
    "bhatpara abhaynagar": {
        "name": "Bhātpāra Abhaynagar",
        "lat": 23.01472,
        "lon": 89.43936
    },
    "bheramara": {
        "name": "Bherāmāra",
        "lat": 24.02452,
        "lon": 88.99234
    },
    "bhairab bazar": {
        "name": "Bhairab Bāzār",
        "lat": 24.0524,
        "lon": 90.9764
    },
    "bandarban": {
        "name": "Bāndarban",
        "lat": 22.19534,
        "lon": 92.21946
    },
    "kalia": {
        "name": "Kālia",
        "lat": 23.043,
        "lon": 89.63094
    },
    "baniachang": {
        "name": "Baniachang",
        "lat": 24.51863,
        "lon": 91.35787
    },
    "bajitpur": {
        "name": "Bājitpur",
        "lat": 24.21623,
        "lon": 90.95002
    },
    "badarganj": {
        "name": "Badarganj",
        "lat": 25.67419,
        "lon": 89.05377
    },
    "narail": {
        "name": "Narail",
        "lat": 23.15509,
        "lon": 89.49515
    },
    "tungipara": {
        "name": "Tungipāra",
        "lat": 22.89983,
        "lon": 89.90326
    },
    "sarishabari": {
        "name": "Sarishābāri",
        "lat": 24.75127,
        "lon": 89.83126
    },
    "sakhipur": {
        "name": "Sakhipur",
        "lat": 24.31988,
        "lon": 90.16943
    },
    "raojan": {
        "name": "Raojān",
        "lat": 22.53511,
        "lon": 91.91919
    },
    "phultala": {
        "name": "Phultala",
        "lat": 22.71673,
        "lon": 89.51194
    },
    "palang": {
        "name": "Pālang",
        "lat": 23.21824,
        "lon": 90.35076
    },
    "par naogaon": {
        "name": "Pār Naogaon",
        "lat": 24.80418,
        "lon": 88.94875
    },
    "nabinagar": {
        "name": "Nabīnagar",
        "lat": 24.60681,
        "lon": 84.12624
    },
    "lakshmipur": {
        "name": "Lakshmīpur",
        "lat": 22.9443,
        "lon": 90.83005
    },
    "kesabpur": {
        "name": "Kesabpur",
        "lat": 22.90725,
        "lon": 89.21954
    },
    "hajiganj": {
        "name": "Hājīganj",
        "lat": 23.25191,
        "lon": 90.85508
    },
    "faridpur": {
        "name": "Farīdpur",
        "lat": 28.20997,
        "lon": 79.54149
    },
    "uttar char fasson": {
        "name": "Uttar Char Fasson",
        "lat": 22.22647,
        "lon": 90.71275
    },
    "chittagong": {
        "name": "Chittagong",
        "lat": 22.3384,
        "lon": 91.83168
    },
    "char bhadrasan": {
        "name": "Char Bhadrāsan",
        "lat": 23.30916,
        "lon": 90.22698
    },
    "bera": {
        "name": "Bera",
        "lat": 24.07821,
        "lon": 89.63262
    },
    "burhanuddin": {
        "name": "Burhānuddin",
        "lat": 22.49518,
        "lon": 90.72391
    },
    "satkania": {
        "name": "Sātkania",
        "lat": 22.07639,
        "lon": 92.04955
    },
    "coxs bazar": {
        "name": "Cox’s Bāzār",
        "lat": 21.43973,
        "lon": 92.00955
    },
    "khulna": {
        "name": "Khulna",
        "lat": 22.80979,
        "lon": 89.56439
    },
    "bhola": {
        "name": "Bhola",
        "lat": 22.68759,
        "lon": 90.64403
    },
    "barisal": {
        "name": "Barisāl",
        "lat": 22.70497,
        "lon": 90.37013
    },
    "jessore": {
        "name": "Jessore",
        "lat": 23.16971,
        "lon": 89.21371
    },
    "pabna": {
        "name": "Pābna",
        "lat": 24.00644,
        "lon": 89.2372
    },
    "tangail": {
        "name": "Tāngāil",
        "lat": 24.24984,
        "lon": 89.91655
    },
    "bogra": {
        "name": "Bogra",
        "lat": 24.85098,
        "lon": 89.37108
    },
    "pirgaaj": {
        "name": "Pīrgaaj",
        "lat": 25.85587,
        "lon": 88.35943
    },
    "nawabganj": {
        "name": "Nawābganj",
        "lat": 26.86396,
        "lon": 82.14103
    },
    "madaripur": {
        "name": "Mādārīpur",
        "lat": 23.17097,
        "lon": 90.20935
    },
    "kishorganj": {
        "name": "Kishorganj",
        "lat": 24.43944,
        "lon": 90.78291
    },
    "manikchari": {
        "name": "Manikchari",
        "lat": 22.83957,
        "lon": 91.84128
    },
    "bhandaria": {
        "name": "Bhāndāria",
        "lat": 22.48898,
        "lon": 90.06273
    },
    "fatikchari": {
        "name": "Fatikchari",
        "lat": 22.68768,
        "lon": 91.78123
    },
    "saidpur": {
        "name": "Saidpur",
        "lat": 25.53749,
        "lon": 83.22378
    },
    "azimpur": {
        "name": "Azimpur",
        "lat": 23.7298,
        "lon": 90.3854
    },
    "paltan": {
        "name": "Paltan",
        "lat": 23.73625,
        "lon": 90.41426
    },
    "zwijndrecht": {
        "name": "Zwijndrecht",
        "lat": 51.8175,
        "lon": 4.63333
    },
    "zwevegem": {
        "name": "Zwevegem",
        "lat": 50.81268,
        "lon": 3.33848
    },
    "zottegem": {
        "name": "Zottegem",
        "lat": 50.86955,
        "lon": 3.81052
    },
    "zonhoven": {
        "name": "Zonhoven",
        "lat": 50.99064,
        "lon": 5.36819
    },
    "zoersel": {
        "name": "Zoersel",
        "lat": 51.26825,
        "lon": 4.71296
    },
    "zemst": {
        "name": "Zemst",
        "lat": 50.98318,
        "lon": 4.46079
    },
    "zele": {
        "name": "Zele",
        "lat": 51.06566,
        "lon": 4.0403
    },
    "zedelgem": {
        "name": "Zedelgem",
        "lat": 51.14236,
        "lon": 3.1368
    },
    "zaventem": {
        "name": "Zaventem",
        "lat": 50.88365,
        "lon": 4.47298
    },
    "wuustwezel": {
        "name": "Wuustwezel",
        "lat": 51.39214,
        "lon": 4.59546
    },
    "willebroek": {
        "name": "Willebroek",
        "lat": 51.06041,
        "lon": 4.36019
    },
    "wevelgem": {
        "name": "Wevelgem",
        "lat": 50.8,
        "lon": 3.16667
    },
    "wetteren": {
        "name": "Wetteren",
        "lat": 51.00526,
        "lon": 3.88341
    },
    "westerlo": {
        "name": "Westerlo",
        "lat": 51.09049,
        "lon": 4.91544
    },
    "wervik": {
        "name": "Wervik",
        "lat": 50.78069,
        "lon": 3.03854
    },
    "wavre": {
        "name": "Wavre",
        "lat": 50.71717,
        "lon": 4.60138
    },
    "waterloo": {
        "name": "Waterloo",
        "lat": 42.49276,
        "lon": -92.34296
    },
    "waregem": {
        "name": "Waregem",
        "lat": 50.88898,
        "lon": 3.42756
    },
    "walcourt": {
        "name": "Walcourt",
        "lat": 50.25401,
        "lon": 4.43796
    },
    "vise": {
        "name": "Visé",
        "lat": 50.7376,
        "lon": 5.69907
    },
    "vilvoorde": {
        "name": "Vilvoorde",
        "lat": 50.92814,
        "lon": 4.42938
    },
    "verviers": {
        "name": "Verviers",
        "lat": 50.58907,
        "lon": 5.86241
    },
    "turnhout": {
        "name": "Turnhout",
        "lat": 51.32254,
        "lon": 4.94471
    },
    "tubize": {
        "name": "Tubize",
        "lat": 50.69059,
        "lon": 4.2009
    },
    "tournai": {
        "name": "Tournai",
        "lat": 50.60715,
        "lon": 3.38932
    },
    "torhout": {
        "name": "Torhout",
        "lat": 51.0656,
        "lon": 3.10085
    },
    "tongeren": {
        "name": "Tongeren",
        "lat": 50.78054,
        "lon": 5.46484
    },
    "tienen": {
        "name": "Tienen",
        "lat": 50.80745,
        "lon": 4.9378
    },
    "tielt": {
        "name": "Tielt",
        "lat": 50.99931,
        "lon": 3.32707
    },
    "tessenderlo": {
        "name": "Tessenderlo",
        "lat": 51.06513,
        "lon": 5.08856
    },
    "tervuren": {
        "name": "Tervuren",
        "lat": 50.82372,
        "lon": 4.51418
    },
    "temse": {
        "name": "Temse",
        "lat": 51.12794,
        "lon": 4.21372
    },
    "stekene": {
        "name": "Stekene",
        "lat": 51.2099,
        "lon": 4.03651
    },
    "stabroek": {
        "name": "Stabroek",
        "lat": 51.33189,
        "lon": 4.37127
    },
    "soumagne": {
        "name": "Soumagne",
        "lat": 50.61385,
        "lon": 5.74679
    },
    "soignies": {
        "name": "Soignies",
        "lat": 50.57904,
        "lon": 4.07129
    },
    "sint-truiden": {
        "name": "Sint-Truiden",
        "lat": 50.81679,
        "lon": 5.18647
    },
    "sint-pieters-leeuw": {
        "name": "Sint-Pieters-Leeuw",
        "lat": 50.77926,
        "lon": 4.24355
    },
    "sint-niklaas": {
        "name": "Sint-Niklaas",
        "lat": 51.16509,
        "lon": 4.1437
    },
    "sint-kruis": {
        "name": "Sint-Kruis",
        "lat": 51.21399,
        "lon": 3.24949
    },
    "sint-katelijne-waver": {
        "name": "Sint-Katelijne-Waver",
        "lat": 51.06691,
        "lon": 4.53469
    },
    "sint-gillis-waas": {
        "name": "Sint-Gillis-Waas",
        "lat": 51.21914,
        "lon": 4.12374
    },
    "sint-genesius-rode": {
        "name": "Sint-Genesius-Rode",
        "lat": 50.74645,
        "lon": 4.35754
    },
    "seraing": {
        "name": "Seraing",
        "lat": 50.58362,
        "lon": 5.50115
    },
    "schoten": {
        "name": "Schoten",
        "lat": 51.25251,
        "lon": 4.50268
    },
    "schilde": {
        "name": "Schilde",
        "lat": 51.24107,
        "lon": 4.58336
    },
    "saint-nicolas": {
        "name": "Saint-Nicolas",
        "lat": 50.62837,
        "lon": 5.53243
    },
    "saint-ghislain": {
        "name": "Saint-Ghislain",
        "lat": 50.44816,
        "lon": 3.81886
    },
    "rotselaar": {
        "name": "Rotselaar",
        "lat": 50.95302,
        "lon": 4.71665
    },
    "ronse": {
        "name": "Ronse",
        "lat": 50.74574,
        "lon": 3.6005
    },
    "roeselare": {
        "name": "Roeselare",
        "lat": 50.94653,
        "lon": 3.12269
    },
    "rixensart": {
        "name": "Rixensart",
        "lat": 50.71229,
        "lon": 4.52529
    },
    "riemst": {
        "name": "Riemst",
        "lat": 50.80995,
        "lon": 5.60131
    },
    "ranst": {
        "name": "Ranst",
        "lat": 51.18983,
        "lon": 4.56533
    },
    "quaregnon": {
        "name": "Quaregnon",
        "lat": 50.44067,
        "lon": 3.8653
    },
    "puurs": {
        "name": "Puurs",
        "lat": 51.07409,
        "lon": 4.28844
    },
    "putte": {
        "name": "Putte",
        "lat": 51.05337,
        "lon": 4.63263
    },
    "poperinge": {
        "name": "Poperinge",
        "lat": 50.85386,
        "lon": 2.72659
    },
    "pont-a-celles": {
        "name": "Pont-à-Celles",
        "lat": 50.50518,
        "lon": 4.36887
    },
    "peruwelz": {
        "name": "Péruwelz",
        "lat": 50.50819,
        "lon": 3.59373
    },
    "peer": {
        "name": "Peer",
        "lat": 51.1303,
        "lon": 5.45952
    },
    "overijse": {
        "name": "Overijse",
        "lat": 50.77436,
        "lon": 4.53461
    },
    "oupeye": {
        "name": "Oupeye",
        "lat": 50.71184,
        "lon": 5.6468
    },
    "oudenaarde": {
        "name": "Oudenaarde",
        "lat": 50.85168,
        "lon": 3.60891
    },
    "oostkamp": {
        "name": "Oostkamp",
        "lat": 51.15432,
        "lon": 3.23128
    },
    "ostend": {
        "name": "Ostend",
        "lat": 51.21551,
        "lon": 2.927
    },
    "nivelles": {
        "name": "Nivelles",
        "lat": 50.59833,
        "lon": 4.32848
    },
    "ninove": {
        "name": "Ninove",
        "lat": 50.82776,
        "lon": 4.02657
    },
    "nijlen": {
        "name": "Nijlen",
        "lat": 51.16096,
        "lon": 4.67008
    },
    "neerpelt": {
        "name": "Neerpelt",
        "lat": 51.22807,
        "lon": 5.4427
    },
    "namur": {
        "name": "Namur",
        "lat": 50.4669,
        "lon": 4.86746
    },
    "mouscron": {
        "name": "Mouscron",
        "lat": 50.74497,
        "lon": 3.20639
    },
    "mortsel": {
        "name": "Mortsel",
        "lat": 51.16697,
        "lon": 4.45127
    },
    "morlanwelz-mariemont": {
        "name": "Morlanwelz-Mariemont",
        "lat": 50.45502,
        "lon": 4.24519
    },
    "mons": {
        "name": "Mons",
        "lat": 50.45413,
        "lon": 3.95229
    },
    "mol": {
        "name": "Mol",
        "lat": 51.19188,
        "lon": 5.11662
    },
    "middelkerke": {
        "name": "Middelkerke",
        "lat": 51.18532,
        "lon": 2.82077
    },
    "merelbeke": {
        "name": "Merelbeke",
        "lat": 50.99447,
        "lon": 3.74621
    },
    "menen": {
        "name": "Menen",
        "lat": 50.79722,
        "lon": 3.12245
    },
    "meise": {
        "name": "Meise",
        "lat": 50.93934,
        "lon": 4.32655
    },
    "mechelen": {
        "name": "Mechelen",
        "lat": 51.02574,
        "lon": 4.47762
    },
    "marche-en-famenne": {
        "name": "Marche-en-Famenne",
        "lat": 50.22678,
        "lon": 5.34416
    },
    "manage": {
        "name": "Manage",
        "lat": 50.50312,
        "lon": 4.23589
    },
    "maldegem": {
        "name": "Maldegem",
        "lat": 51.20737,
        "lon": 3.44511
    },
    "maasmechelen": {
        "name": "Maasmechelen",
        "lat": 50.96545,
        "lon": 5.69452
    },
    "maaseik": {
        "name": "Maaseik",
        "lat": 51.09802,
        "lon": 5.78379
    },
    "louvain-la-neuve": {
        "name": "Louvain-la-Neuve",
        "lat": 50.66829,
        "lon": 4.61443
    },
    "londerzeel": {
        "name": "Londerzeel",
        "lat": 51.00468,
        "lon": 4.30304
    },
    "lommel": {
        "name": "Lommel",
        "lat": 51.23074,
        "lon": 5.31349
    },
    "lokeren": {
        "name": "Lokeren",
        "lat": 51.10364,
        "lon": 3.99339
    },
    "lochristi": {
        "name": "Lochristi",
        "lat": 51.09644,
        "lon": 3.83194
    },
    "lille": {
        "name": "Lille",
        "lat": 50.63297,
        "lon": 3.05858
    },
    "lier": {
        "name": "Lier",
        "lat": 51.13128,
        "lon": 4.57041
    },
    "liege": {
        "name": "Liège",
        "lat": 50.63373,
        "lon": 5.56749
    },
    "leuven": {
        "name": "Leuven",
        "lat": 50.87959,
        "lon": 4.70093
    },
    "lessines": {
        "name": "Lessines",
        "lat": 50.71104,
        "lon": 3.83579
    },
    "lede": {
        "name": "Lede",
        "lat": 50.96626,
        "lon": 3.98594
    },
    "lebbeke": {
        "name": "Lebbeke",
        "lat": 51.00464,
        "lon": 4.13457
    },
    "lanaken": {
        "name": "Lanaken",
        "lat": 50.89318,
        "lon": 5.6468
    },
    "la louviere": {
        "name": "La Louvière",
        "lat": 50.48657,
        "lon": 4.18785
    },
    "kortrijk": {
        "name": "Kortrijk",
        "lat": 50.82803,
        "lon": 3.26487
    },
    "kortenberg": {
        "name": "Kortenberg",
        "lat": 50.88982,
        "lon": 4.54353
    },
    "kontich": {
        "name": "Kontich",
        "lat": 51.13213,
        "lon": 4.44706
    },
    "koksijde": {
        "name": "Koksijde",
        "lat": 51.11642,
        "lon": 2.63772
    },
    "kasterlee": {
        "name": "Kasterlee",
        "lat": 51.24118,
        "lon": 4.96651
    },
    "kapellen": {
        "name": "Kapellen",
        "lat": 51.31377,
        "lon": 4.43539
    },
    "kalmthout": {
        "name": "Kalmthout",
        "lat": 51.38442,
        "lon": 4.47556
    },
    "izegem": {
        "name": "Izegem",
        "lat": 50.91396,
        "lon": 3.21378
    },
    "ieper": {
        "name": "Ieper",
        "lat": 50.85114,
        "lon": 2.88569
    },
    "huy": {
        "name": "Huy",
        "lat": 50.51894,
        "lon": 5.23284
    },
    "houthalen": {
        "name": "Houthalen",
        "lat": 51.03427,
        "lon": 5.37429
    },
    "hoogstraten": {
        "name": "Hoogstraten",
        "lat": 51.40029,
        "lon": 4.76034
    },
    "hoboken": {
        "name": "Hoboken",
        "lat": 40.74399,
        "lon": -74.03236
    },
    "heusden": {
        "name": "Heusden",
        "lat": 51.73417,
        "lon": 5.13889
    },
    "herzele": {
        "name": "Herzele",
        "lat": 50.88681,
        "lon": 3.89014
    },
    "herve": {
        "name": "Herve",
        "lat": 50.64083,
        "lon": 5.79353
    },
    "herstal": {
        "name": "Herstal",
        "lat": 50.66415,
        "lon": 5.62346
    },
    "herentals": {
        "name": "Herentals",
        "lat": 51.17655,
        "lon": 4.83248
    },
    "herent": {
        "name": "Herent",
        "lat": 50.90861,
        "lon": 4.67056
    },
    "helchteren": {
        "name": "Helchteren",
        "lat": 51.05591,
        "lon": 5.38244
    },
    "heist-op-den-berg": {
        "name": "Heist-op-den-Berg",
        "lat": 51.07537,
        "lon": 4.72827
    },
    "hasselt": {
        "name": "Hasselt",
        "lat": 50.93106,
        "lon": 5.33781
    },
    "harelbeke": {
        "name": "Harelbeke",
        "lat": 50.85343,
        "lon": 3.30935
    },
    "hamme": {
        "name": "Hamme",
        "lat": 51.09822,
        "lon": 4.13705
    },
    "halle": {
        "name": "Halle",
        "lat": 52.06007,
        "lon": 8.36083
    },
    "haaltert": {
        "name": "Haaltert",
        "lat": 50.90634,
        "lon": 4.00093
    },
    "grimbergen": {
        "name": "Grimbergen",
        "lat": 50.93409,
        "lon": 4.37213
    },
    "geraardsbergen": {
        "name": "Geraardsbergen",
        "lat": 50.77343,
        "lon": 3.88223
    },
    "gent": {
        "name": "Gent",
        "lat": 51.05,
        "lon": 3.71667
    },
    "genk": {
        "name": "Genk",
        "lat": 50.965,
        "lon": 5.50082
    },
    "gembloux": {
        "name": "Gembloux",
        "lat": 50.56149,
        "lon": 4.69889
    },
    "geel": {
        "name": "Geel",
        "lat": 51.16557,
        "lon": 4.98917
    },
    "frameries": {
        "name": "Frameries",
        "lat": 50.40578,
        "lon": 3.89603
    },
    "fleurus": {
        "name": "Fleurus",
        "lat": 50.48351,
        "lon": 4.55006
    },
    "fleron": {
        "name": "Fléron",
        "lat": 50.61516,
        "lon": 5.68062
    },
    "flemalle-haute": {
        "name": "Flémalle-Haute",
        "lat": 50.59994,
        "lon": 5.44471
    },
    "evergem": {
        "name": "Evergem",
        "lat": 51.10529,
        "lon": 3.704
    },
    "eupen": {
        "name": "Eupen",
        "lat": 50.6279,
        "lon": 6.03647
    },
    "essen": {
        "name": "Essen",
        "lat": 51.45657,
        "lon": 7.01228
    },
    "eeklo": {
        "name": "Eeklo",
        "lat": 51.18703,
        "lon": 3.55654
    },
    "edegem": {
        "name": "Edegem",
        "lat": 51.15662,
        "lon": 4.44504
    },
    "duffel": {
        "name": "Duffel",
        "lat": 51.09554,
        "lon": 4.50903
    },
    "dour": {
        "name": "Dour",
        "lat": 50.39583,
        "lon": 3.77792
    },
    "dilbeek": {
        "name": "Dilbeek",
        "lat": 50.84799,
        "lon": 4.25972
    },
    "diksmuide": {
        "name": "Diksmuide",
        "lat": 51.03248,
        "lon": 2.86384
    },
    "diest": {
        "name": "Diest",
        "lat": 50.98923,
        "lon": 5.05062
    },
    "diepenbeek": {
        "name": "Diepenbeek",
        "lat": 50.90769,
        "lon": 5.41875
    },
    "destelbergen": {
        "name": "Destelbergen",
        "lat": 51.05952,
        "lon": 3.79899
    },
    "dendermonde": {
        "name": "Dendermonde",
        "lat": 51.02869,
        "lon": 4.10106
    },
    "denderleeuw": {
        "name": "Denderleeuw",
        "lat": 50.88506,
        "lon": 4.07601
    },
    "deinze": {
        "name": "Deinze",
        "lat": 50.98175,
        "lon": 3.53096
    },
    "courcelles": {
        "name": "Courcelles",
        "lat": 50.46379,
        "lon": 4.3747
    },
    "colfontaine": {
        "name": "Colfontaine",
        "lat": 50.4141,
        "lon": 3.85569
    },
    "chaudfontaine": {
        "name": "Chaudfontaine",
        "lat": 50.5828,
        "lon": 5.6341
    },
    "chatelet": {
        "name": "Châtelet",
        "lat": 50.40338,
        "lon": 4.52826
    },
    "chasse royale": {
        "name": "Chasse Royale",
        "lat": 50.42842,
        "lon": 3.95001
    },
    "charleroi": {
        "name": "Charleroi",
        "lat": 50.41136,
        "lon": 4.44448
    },
    "brussels": {
        "name": "Brussels",
        "lat": 50.85045,
        "lon": 4.34878
    },
    "brugge": {
        "name": "Brugge",
        "lat": 51.20892,
        "lon": 3.22424
    },
    "brecht": {
        "name": "Brecht",
        "lat": 51.35024,
        "lon": 4.63829
    },
    "brasschaat": {
        "name": "Brasschaat",
        "lat": 51.2912,
        "lon": 4.49182
    },
    "braine-le-comte": {
        "name": "Braine-le-Comte",
        "lat": 50.60979,
        "lon": 4.14658
    },
    "braine-l'alleud": {
        "name": "Braine-l'Alleud",
        "lat": 50.68363,
        "lon": 4.36784
    },
    "boussu": {
        "name": "Boussu",
        "lat": 50.43417,
        "lon": 3.7944
    },
    "bornem": {
        "name": "Bornem",
        "lat": 51.09716,
        "lon": 4.24364
    },
    "boom": {
        "name": "Boom",
        "lat": 51.09242,
        "lon": 4.3717
    },
    "blankenberge": {
        "name": "Blankenberge",
        "lat": 51.31306,
        "lon": 3.13227
    },
    "binche": {
        "name": "Binche",
        "lat": 50.41155,
        "lon": 4.16469
    },
    "bilzen": {
        "name": "Bilzen",
        "lat": 50.87325,
        "lon": 5.5184
    },
    "beveren": {
        "name": "Beveren",
        "lat": 51.21187,
        "lon": 4.25633
    },
    "beringen": {
        "name": "Beringen",
        "lat": 51.04954,
        "lon": 5.22606
    },
    "beersel": {
        "name": "Beersel",
        "lat": 50.76589,
        "lon": 4.3002
    },
    "beerse": {
        "name": "Beerse",
        "lat": 51.31927,
        "lon": 4.85304
    },
    "balen": {
        "name": "Balen",
        "lat": 51.16837,
        "lon": 5.17027
    },
    "ath": {
        "name": "Ath",
        "lat": 50.62937,
        "lon": 3.77801
    },
    "asse": {
        "name": "Asse",
        "lat": 50.91011,
        "lon": 4.19836
    },
    "arlon": {
        "name": "Arlon",
        "lat": 49.68333,
        "lon": 5.81667
    },
    "antwerpen": {
        "name": "Antwerpen",
        "lat": 51.21989,
        "lon": 4.40346
    },
    "ans": {
        "name": "Ans",
        "lat": 50.6623,
        "lon": 5.52029
    },
    "andenne": {
        "name": "Andenne",
        "lat": 50.48941,
        "lon": 5.09513
    },
    "aarschot": {
        "name": "Aarschot",
        "lat": 50.98715,
        "lon": 4.83695
    },
    "aalter": {
        "name": "Aalter",
        "lat": 51.09017,
        "lon": 3.44693
    },
    "aalst": {
        "name": "Aalst",
        "lat": 50.93604,
        "lon": 4.0355
    },
    "zorgo": {
        "name": "Zorgo",
        "lat": 12.24922,
        "lon": -0.61527
    },
    "yako": {
        "name": "Yako",
        "lat": 12.9591,
        "lon": -2.26075
    },
    "tougan": {
        "name": "Tougan",
        "lat": 13.0725,
        "lon": -3.0694
    },
    "titao": {
        "name": "Titao",
        "lat": 13.76667,
        "lon": -2.06667
    },
    "tenkodogo": {
        "name": "Tenkodogo",
        "lat": 11.78,
        "lon": -0.36972
    },
    "reo": {
        "name": "Réo",
        "lat": 12.31963,
        "lon": -2.47094
    },
    "po": {
        "name": "Pô",
        "lat": 11.16972,
        "lon": -1.145
    },
    "ouahigouya": {
        "name": "Ouahigouya",
        "lat": 13.58278,
        "lon": -2.42158
    },
    "ouagadougou": {
        "name": "Ouagadougou",
        "lat": 12.36566,
        "lon": -1.53388
    },
    "nouna": {
        "name": "Nouna",
        "lat": 12.72939,
        "lon": -3.86305
    },
    "manga": {
        "name": "Manga",
        "lat": 11.66361,
        "lon": -1.07306
    },
    "leo": {
        "name": "Léo",
        "lat": 11.10033,
        "lon": -2.10654
    },
    "koupela": {
        "name": "Koupéla",
        "lat": 12.17864,
        "lon": -0.35103
    },
    "koudougou": {
        "name": "Koudougou",
        "lat": 12.25263,
        "lon": -2.36272
    },
    "kongoussi": {
        "name": "Kongoussi",
        "lat": 13.32583,
        "lon": -1.53472
    },
    "kombissiri": {
        "name": "Kombissiri",
        "lat": 12.06095,
        "lon": -1.33355
    },
    "kokologo": {
        "name": "Kokologo",
        "lat": 12.18972,
        "lon": -1.88556
    },
    "kaya": {
        "name": "Kaya",
        "lat": 13.09167,
        "lon": -1.08444
    },
    "hounde": {
        "name": "Houndé",
        "lat": 11.5,
        "lon": -3.51667
    },
    "gourcy": {
        "name": "Gourcy",
        "lat": 13.20776,
        "lon": -2.35893
    },
    "garango": {
        "name": "Garango",
        "lat": 11.8,
        "lon": -0.55056
    },
    "fada n'gourma": {
        "name": "Fada N'gourma",
        "lat": 12.06157,
        "lon": 0.35843
    },
    "dori": {
        "name": "Dori",
        "lat": 14.0354,
        "lon": -0.0345
    },
    "djibo": {
        "name": "Djibo",
        "lat": 14.0994,
        "lon": -1.62554
    },
    "diapaga": {
        "name": "Diapaga",
        "lat": 12.07305,
        "lon": 1.78838
    },
    "dedougou": {
        "name": "Dédougou",
        "lat": 12.46338,
        "lon": -3.46075
    },
    "bousse": {
        "name": "Boussé",
        "lat": 12.6576,
        "lon": -1.89288
    },
    "boulsa": {
        "name": "Boulsa",
        "lat": 12.66664,
        "lon": -0.57469
    },
    "bobo-dioulasso": {
        "name": "Bobo-Dioulasso",
        "lat": 11.17715,
        "lon": -4.2979
    },
    "banfora": {
        "name": "Banfora",
        "lat": 10.63333,
        "lon": -4.76667
    },
    "gaoua": {
        "name": "Gaoua",
        "lat": 10.29917,
        "lon": -3.25083
    },
    "orodara": {
        "name": "Orodara",
        "lat": 10.94917,
        "lon": -4.93417
    },
    "yambol": {
        "name": "Yambol",
        "lat": 42.48333,
        "lon": 26.5
    },
    "vratsa": {
        "name": "Vratsa",
        "lat": 43.21,
        "lon": 23.5625
    },
    "vidin": {
        "name": "Vidin",
        "lat": 43.99,
        "lon": 22.8725
    },
    "velingrad": {
        "name": "Velingrad",
        "lat": 42.02754,
        "lon": 23.99155
    },
    "veliko turnovo": {
        "name": "Veliko Tŭrnovo",
        "lat": 43.08124,
        "lon": 25.62904
    },
    "varna": {
        "name": "Varna",
        "lat": 43.21667,
        "lon": 27.91667
    },
    "targovishte": {
        "name": "Targovishte",
        "lat": 43.2512,
        "lon": 26.57215
    },
    "troyan": {
        "name": "Troyan",
        "lat": 42.89427,
        "lon": 24.71589
    },
    "dobrich": {
        "name": "Dobrich",
        "lat": 43.56667,
        "lon": 27.83333
    },
    "svishtov": {
        "name": "Svishtov",
        "lat": 43.61959,
        "lon": 25.35044
    },
    "svilengrad": {
        "name": "Svilengrad",
        "lat": 41.76667,
        "lon": 26.2
    },
    "stara zagora": {
        "name": "Stara Zagora",
        "lat": 42.43278,
        "lon": 25.64194
    },
    "dupnitsa": {
        "name": "Dupnitsa",
        "lat": 42.26667,
        "lon": 23.11667
    },
    "sofia": {
        "name": "Sofia",
        "lat": 42.69751,
        "lon": 23.32415
    },
    "smolyan": {
        "name": "Smolyan",
        "lat": 41.58528,
        "lon": 24.69194
    },
    "sliven": {
        "name": "Sliven",
        "lat": 42.68583,
        "lon": 26.32917
    },
    "silistra": {
        "name": "Silistra",
        "lat": 44.11667,
        "lon": 27.26667
    },
    "shumen": {
        "name": "Shumen",
        "lat": 43.27064,
        "lon": 26.92286
    },
    "sevlievo": {
        "name": "Sevlievo",
        "lat": 43.02583,
        "lon": 25.11361
    },
    "sandanski": {
        "name": "Sandanski",
        "lat": 41.56667,
        "lon": 23.28333
    },
    "samokov": {
        "name": "Samokov",
        "lat": 42.337,
        "lon": 23.5528
    },
    "ruse": {
        "name": "Ruse",
        "lat": 43.85639,
        "lon": 25.97083
    },
    "razgrad": {
        "name": "Razgrad",
        "lat": 43.53333,
        "lon": 26.51667
    },
    "rakovski": {
        "name": "Rakovski",
        "lat": 42.3,
        "lon": 24.96667
    },
    "popovo": {
        "name": "Popovo",
        "lat": 43.35,
        "lon": 26.23333
    },
    "plovdiv": {
        "name": "Plovdiv",
        "lat": 42.15,
        "lon": 24.75
    },
    "pleven": {
        "name": "Pleven",
        "lat": 43.41667,
        "lon": 24.61667
    },
    "petrich": {
        "name": "Petrich",
        "lat": 41.39846,
        "lon": 23.20702
    },
    "peshtera": {
        "name": "Peshtera",
        "lat": 42.03333,
        "lon": 24.3
    },
    "pernik": {
        "name": "Pernik",
        "lat": 42.6,
        "lon": 23.03333
    },
    "pazardzhik": {
        "name": "Pazardzhik",
        "lat": 42.2,
        "lon": 24.33333
    },
    "panagyurishte": {
        "name": "Panagyurishte",
        "lat": 42.5,
        "lon": 24.18333
    },
    "nova zagora": {
        "name": "Nova Zagora",
        "lat": 42.48333,
        "lon": 26.01667
    },
    "montana": {
        "name": "Montana",
        "lat": 43.4125,
        "lon": 23.225
    },
    "lovech": {
        "name": "Lovech",
        "lat": 43.13333,
        "lon": 24.71667
    },
    "lom": {
        "name": "Lom",
        "lat": 43.81389,
        "lon": 23.23611
    },
    "kyustendil": {
        "name": "Kyustendil",
        "lat": 42.28389,
        "lon": 22.69111
    },
    "kardzhali": {
        "name": "Kardzhali",
        "lat": 41.65,
        "lon": 25.36667
    },
    "haskovo": {
        "name": "Haskovo",
        "lat": 41.93415,
        "lon": 25.55557
    },
    "harmanli": {
        "name": "Harmanli",
        "lat": 41.93333,
        "lon": 25.9
    },
    "kazanlak": {
        "name": "Kazanlak",
        "lat": 42.61667,
        "lon": 25.4
    },
    "karnobat": {
        "name": "Karnobat",
        "lat": 42.65,
        "lon": 26.98333
    },
    "karlovo": {
        "name": "Karlovo",
        "lat": 42.63333,
        "lon": 24.8
    },
    "gotse delchev": {
        "name": "Gotse Delchev",
        "lat": 41.56667,
        "lon": 23.73333
    },
    "gorna oryahovitsa": {
        "name": "Gorna Oryahovitsa",
        "lat": 43.12778,
        "lon": 25.70167
    },
    "gabrovo": {
        "name": "Gabrovo",
        "lat": 42.87472,
        "lon": 25.33417
    },
    "kokkola": {
        "name": "Kokkola",
        "lat": 63.83847,
        "lon": 23.13066
    },
    "dimitrovgrad": {
        "name": "Dimitrovgrad",
        "lat": 54.21386,
        "lon": 49.61838
    },
    "chirpan": {
        "name": "Chirpan",
        "lat": 42.2,
        "lon": 25.33333
    },
    "cherven bryag": {
        "name": "Cherven Bryag",
        "lat": 43.26667,
        "lon": 24.1
    },
    "burgas": {
        "name": "Burgas",
        "lat": 42.50606,
        "lon": 27.46781
    },
    "botevgrad": {
        "name": "Botevgrad",
        "lat": 42.9,
        "lon": 23.78333
    },
    "blagoevgrad": {
        "name": "Blagoevgrad",
        "lat": 42.01667,
        "lon": 23.1
    },
    "berkovitsa": {
        "name": "Berkovitsa",
        "lat": 43.23611,
        "lon": 23.12583
    },
    "aytos": {
        "name": "Aytos",
        "lat": 42.7,
        "lon": 27.25
    },
    "asenovgrad": {
        "name": "Asenovgrad",
        "lat": 42.01667,
        "lon": 24.86667
    },
    "sitrah": {
        "name": "Sitrah",
        "lat": 26.15472,
        "lon": 50.62056
    },
    "madinat isa": {
        "name": "Madīnat ‘Īsá",
        "lat": 26.17361,
        "lon": 50.54778
    },
    "jidd hafs": {
        "name": "Jidd Ḩafş",
        "lat": 26.21861,
        "lon": 50.54778
    },
    "madinat hamad": {
        "name": "Madīnat Ḩamad",
        "lat": 26.11528,
        "lon": 50.50694
    },
    "dar kulayb": {
        "name": "Dār Kulayb",
        "lat": 26.06861,
        "lon": 50.50389
    },
    "al muharraq": {
        "name": "Al Muharraq",
        "lat": 26.25722,
        "lon": 50.61194
    },
    "manama": {
        "name": "Manama",
        "lat": 26.22787,
        "lon": 50.58565
    },
    "ar rifa": {
        "name": "Ar Rifā‘",
        "lat": 26.13,
        "lon": 50.555
    },
    "makamba": {
        "name": "Makamba",
        "lat": -4.1348,
        "lon": 29.804
    },
    "bururi": {
        "name": "Bururi",
        "lat": -3.94877,
        "lon": 29.62438
    },
    "bujumbura": {
        "name": "Bujumbura",
        "lat": -3.3822,
        "lon": 29.3644
    },
    "muramvya": {
        "name": "Muramvya",
        "lat": -3.2682,
        "lon": 29.6079
    },
    "gitega": {
        "name": "Gitega",
        "lat": -3.4264,
        "lon": 29.9308
    },
    "ruyigi": {
        "name": "Ruyigi",
        "lat": -3.47639,
        "lon": 30.24861
    },
    "ngozi": {
        "name": "Ngozi",
        "lat": -2.9075,
        "lon": 29.8306
    },
    "kayanza": {
        "name": "Kayanza",
        "lat": -2.9221,
        "lon": 29.6293
    },
    "muyinga": {
        "name": "Muyinga",
        "lat": -2.8451,
        "lon": 30.3414
    },
    "rutana": {
        "name": "Rutana",
        "lat": -3.9279,
        "lon": 29.992
    },
    "tchaourou": {
        "name": "Tchaourou",
        "lat": 8.88649,
        "lon": 2.59753
    },
    "tanguieta": {
        "name": "Tanguiéta",
        "lat": 10.62118,
        "lon": 1.26651
    },
    "save": {
        "name": "Savé",
        "lat": 8.03424,
        "lon": 2.4866
    },
    "savalou": {
        "name": "Savalou",
        "lat": 7.92807,
        "lon": 1.97558
    },
    "sakete": {
        "name": "Sakété",
        "lat": 6.73618,
        "lon": 2.65866
    },
    "porto-novo": {
        "name": "Porto-Novo",
        "lat": 6.49646,
        "lon": 2.60359
    },
    "pobe": {
        "name": "Pobé",
        "lat": 6.98008,
        "lon": 2.6649
    },
    "parakou": {
        "name": "Parakou",
        "lat": 9.33716,
        "lon": 2.63031
    },
    "ouidah": {
        "name": "Ouidah",
        "lat": 6.36307,
        "lon": 2.08506
    },
    "nikki": {
        "name": "Nikki",
        "lat": 9.94009,
        "lon": 3.21075
    },
    "natitingou": {
        "name": "Natitingou",
        "lat": 10.30416,
        "lon": 1.37962
    },
    "malanville": {
        "name": "Malanville",
        "lat": 11.86819,
        "lon": 3.38327
    },
    "lokossa": {
        "name": "Lokossa",
        "lat": 6.63869,
        "lon": 1.71674
    },
    "ketou": {
        "name": "Kétou",
        "lat": 7.36332,
        "lon": 2.59978
    },
    "kandi": {
        "name": "Kāndi",
        "lat": 23.95946,
        "lon": 88.04018
    },
    "dogbo": {
        "name": "Dogbo",
        "lat": 6.81667,
        "lon": 1.78333
    },
    "djougou": {
        "name": "Djougou",
        "lat": 9.70853,
        "lon": 1.66598
    },
    "dassa-zoume": {
        "name": "Dassa-Zoumé",
        "lat": 7.75,
        "lon": 2.18333
    },
    "cove": {
        "name": "Cové",
        "lat": 7.22097,
        "lon": 2.34017
    },
    "cotonou": {
        "name": "Cotonou",
        "lat": 6.36536,
        "lon": 2.41833
    },
    "come": {
        "name": "Comé",
        "lat": 6.40764,
        "lon": 1.88198
    },
    "bohicon": {
        "name": "Bohicon",
        "lat": 7.17826,
        "lon": 2.0667
    },
    "bembereke": {
        "name": "Bembèrèkè",
        "lat": 10.22827,
        "lon": 2.66335
    },
    "bassila": {
        "name": "Bassila",
        "lat": 9.00814,
        "lon": 1.6654
    },
    "banikoara": {
        "name": "Banikoara",
        "lat": 11.29845,
        "lon": 2.43856
    },
    "aplahoue": {
        "name": "Aplahoué",
        "lat": 6.93333,
        "lon": 1.68333
    },
    "allada": {
        "name": "Allada",
        "lat": 6.66547,
        "lon": 2.15138
    },
    "abomey-calavi": {
        "name": "Abomey-Calavi",
        "lat": 6.44852,
        "lon": 2.35566
    },
    "abomey": {
        "name": "Abomey",
        "lat": 7.18286,
        "lon": 1.99119
    },
    "gustavia": {
        "name": "Gustavia",
        "lat": 17.89618,
        "lon": -62.84978
    },
    "hamilton": {
        "name": "Hamilton",
        "lat": 55.76667,
        "lon": -4.03333
    },
    "tutong": {
        "name": "Tutong",
        "lat": 4.8,
        "lon": 114.65
    },
    "seria": {
        "name": "Seria",
        "lat": 4.60637,
        "lon": 114.32476
    },
    "kuala belait": {
        "name": "Kuala Belait",
        "lat": 4.58361,
        "lon": 114.2312
    },
    "bandar seri begawan": {
        "name": "Bandar Seri Begawan",
        "lat": 4.94029,
        "lon": 114.94806
    },
    "yacuiba": {
        "name": "Yacuiba",
        "lat": -22.01643,
        "lon": -63.67753
    },
    "warnes": {
        "name": "Warnes",
        "lat": -17.5163,
        "lon": -63.16778
    },
    "villazon": {
        "name": "Villazón",
        "lat": -22.08659,
        "lon": -65.59422
    },
    "villa yapacani": {
        "name": "Villa Yapacaní",
        "lat": -17.4,
        "lon": -63.83333
    },
    "villamontes": {
        "name": "Villamontes",
        "lat": -21.26235,
        "lon": -63.46903
    },
    "tupiza": {
        "name": "Tupiza",
        "lat": -21.44345,
        "lon": -65.71875
    },
    "trinidad": {
        "name": "Trinidad",
        "lat": -33.53889,
        "lon": -56.88861
    },
    "tarija": {
        "name": "Tarija",
        "lat": -21.53549,
        "lon": -64.72956
    },
    "sucre": {
        "name": "Sucre",
        "lat": -1.27974,
        "lon": -80.41885
    },
    "santiago del torno": {
        "name": "Santiago del Torno",
        "lat": -17.98674,
        "lon": -63.38118
    },
    "santa cruz de la sierra": {
        "name": "Santa Cruz de la Sierra",
        "lat": -17.78629,
        "lon": -63.18117
    },
    "san ignacio de velasco": {
        "name": "San Ignacio de Velasco",
        "lat": -16.36667,
        "lon": -60.95
    },
    "san borja": {
        "name": "San Borja",
        "lat": -14.81667,
        "lon": -66.85
    },
    "riberalta": {
        "name": "Riberalta",
        "lat": -11.00654,
        "lon": -66.06312
    },
    "punata": {
        "name": "Punata",
        "lat": -17.54234,
        "lon": -65.83472
    },
    "potosi": {
        "name": "Potosí",
        "lat": -19.58361,
        "lon": -65.75306
    },
    "oruro": {
        "name": "Oruro",
        "lat": -17.98333,
        "lon": -67.15
    },
    "montero": {
        "name": "Montero",
        "lat": -17.33866,
        "lon": -63.2505
    },
    "mizque": {
        "name": "Mizque",
        "lat": -17.94101,
        "lon": -65.34016
    },
    "llallagua": {
        "name": "Llallagua",
        "lat": -18.42426,
        "lon": -66.58388
    },
    "huanuni": {
        "name": "Huanuni",
        "lat": -18.289,
        "lon": -66.83583
    },
    "guayaramerin": {
        "name": "Guayaramerín",
        "lat": -10.83676,
        "lon": -65.36136
    },
    "cotoca": {
        "name": "Cotoca",
        "lat": -17.81667,
        "lon": -63.05
    },
    "cochabamba": {
        "name": "Cochabamba",
        "lat": -17.3895,
        "lon": -66.1568
    },
    "cobija": {
        "name": "Cobija",
        "lat": -11.02671,
        "lon": -68.76918
    },
    "camiri": {
        "name": "Camiri",
        "lat": -20.03849,
        "lon": -63.51833
    },
    "kralendijk": {
        "name": "Kralendijk",
        "lat": 12.15,
        "lon": -68.26667
    },
    "vitoria do mearim": {
        "name": "Vitória do Mearim",
        "lat": -3.46222,
        "lon": -44.87056
    },
    "vitoria de santo antao": {
        "name": "Vitória de Santo Antão",
        "lat": -8.11806,
        "lon": -35.29139
    },
    "viseu": {
        "name": "Viseu",
        "lat": 40.66101,
        "lon": -7.90971
    },
    "conde": {
        "name": "Conde",
        "lat": -11.81361,
        "lon": -37.61056
    },
    "vigia": {
        "name": "Vigia",
        "lat": -0.85833,
        "lon": -48.14167
    },
    "vicosa do ceara": {
        "name": "Viçosa do Ceará",
        "lat": -3.56222,
        "lon": -41.09222
    },
    "vicosa": {
        "name": "Viçosa",
        "lat": -20.75389,
        "lon": -42.88194
    },
    "viana": {
        "name": "Viana",
        "lat": -20.39028,
        "lon": -40.49611
    },
    "varzea alegre": {
        "name": "Várzea Alegre",
        "lat": -5.35,
        "lon": -40.38333
    },
    "varjota": {
        "name": "Varjota",
        "lat": -4.19444,
        "lon": -40.47667
    },
    "vargem grande": {
        "name": "Vargem Grande",
        "lat": -3.54306,
        "lon": -43.91583
    },
    "valenca do piaui": {
        "name": "Valença do Piauí",
        "lat": -6.4075,
        "lon": -41.74556
    },
    "uniao dos palmares": {
        "name": "União dos Palmares",
        "lat": -9.16278,
        "lon": -36.03194
    },